{
"type": "FeatureCollection",
"name": "Zorgkaarttotaal",
"crs": { "type": "name", "properties": { "name": "urn:ogc:def:crs:OGC:1.3:CRS84" } },
"features": [
{ "type": "Feature", "properties": { "Name": "Stichting Land van Horne, Woonzorgcentrum Eegelshoeve", "description": null, "timestamp": null, "begin": null, "end": null, "altitudeMode": null, "tessellate": -1, "extrude": 0, "visibility": -1, "drawOrder": null, "icon": null, "Type": "Verpleeghuis en verzorgingshuis", "layer": "Z10", "path": "\/Users\/hiddodeboer\/Downloads\/Z10.kml" }, "geometry": { "type": "Point", "coordinates": [ 5.7095773, 51.3930245, 0.0 ] } },
{ "type": "Feature", "properties": { "Name": "CuraMare Revalidatiezorg", "description": null, "timestamp": null, "begin": null, "end": null, "altitudeMode": null, "tessellate": -1, "extrude": 0, "visibility": -1, "drawOrder": null, "icon": null, "Type": "Verpleeghuis en verzorgingshuis", "layer": "Z10", "path": "\/Users\/hiddodeboer\/Downloads\/Z10.kml" }, "geometry": { "type": "Point", "coordinates": [ 4.1558491000001, 51.752152, 0.0 ] } },
{ "type": "Feature", "properties": { "Name": "CuraMare, locatie Nieuw Rijsenburgh", "description": null, "timestamp": null, "begin": null, "end": null, "altitudeMode": null, "tessellate": -1, "extrude": 0, "visibility": -1, "drawOrder": null, "icon": null, "Type": "Verpleeghuis en verzorgingshuis", "layer": "Z10", "path": "\/Users\/hiddodeboer\/Downloads\/Z10.kml" }, "geometry": { "type": "Point", "coordinates": [ 4.1558491000001, 51.752152, 0.0 ] } },
{ "type": "Feature", "properties": { "Name": "Zorggroep De Laren, Villa De Kleine Heide", "description": null, "timestamp": null, "begin": null, "end": null, "altitudeMode": null, "tessellate": -1, "extrude": 0, "visibility": -1, "drawOrder": null, "icon": null, "Type": "Particulier woonzorgcentrum", "layer": "Z10", "path": "\/Users\/hiddodeboer\/Downloads\/Z10.kml" }, "geometry": { "type": "Point", "coordinates": [ 5.4905265, 51.5131459, 0.0 ] } },
{ "type": "Feature", "properties": { "Name": "Archipel Berkenstaete", "description": null, "timestamp": null, "begin": null, "end": null, "altitudeMode": null, "tessellate": -1, "extrude": 0, "visibility": -1, "drawOrder": null, "icon": null, "Type": "Verpleeghuis en verzorgingshuis", "layer": "Z10", "path": "\/Users\/hiddodeboer\/Downloads\/Z10.kml" }, "geometry": { "type": "Point", "coordinates": [ 5.4884741, 51.5067371, 0.0 ] } },
{ "type": "Feature", "properties": { "Name": "Omring, De Schakel", "description": null, "timestamp": null, "begin": null, "end": null, "altitudeMode": null, "tessellate": -1, "extrude": 0, "visibility": -1, "drawOrder": null, "icon": null, "Type": "Verpleeghuis en verzorgingshuis", "layer": "Z10", "path": "\/Users\/hiddodeboer\/Downloads\/Z10.kml" }, "geometry": { "type": "Point", "coordinates": [ 4.9486957, 52.7034121, 0.0 ] } },
{ "type": "Feature", "properties": { "Name": "Wilgaerden, locatie Zandhove", "description": null, "timestamp": null, "begin": null, "end": null, "altitudeMode": null, "tessellate": -1, "extrude": 0, "visibility": -1, "drawOrder": null, "icon": null, "Type": "Verpleeghuis en verzorgingshuis", "layer": "Z10", "path": "\/Users\/hiddodeboer\/Downloads\/Z10.kml" }, "geometry": { "type": "Point", "coordinates": [ 4.9614282, 52.6972708, 0.0 ] } },
{ "type": "Feature", "properties": { "Name": "Omring, De Oever", "description": null, "timestamp": null, "begin": null, "end": null, "altitudeMode": null, "tessellate": -1, "extrude": 0, "visibility": -1, "drawOrder": null, "icon": null, "Type": "Verpleeghuis en verzorgingshuis", "layer": "Z10", "path": "\/Users\/hiddodeboer\/Downloads\/Z10.kml" }, "geometry": { "type": "Point", "coordinates": [ 4.9403214, 52.6490137, 0.0 ] } },
{ "type": "Feature", "properties": { "Name": "Careyn De Vier Ambachten, Geriatrische revalidatie", "description": null, "timestamp": null, "begin": null, "end": null, "altitudeMode": null, "tessellate": -1, "extrude": 0, "visibility": -1, "drawOrder": null, "icon": null, "Type": "Verpleeghuis en verzorgingshuis", "layer": "Z10", "path": "\/Users\/hiddodeboer\/Downloads\/Z10.kml" }, "geometry": { "type": "Point", "coordinates": [ 4.3240039, 51.8502005, 0.0 ] } },
{ "type": "Feature", "properties": { "Name": "Argos Zorggroep, De Es", "description": null, "timestamp": null, "begin": null, "end": null, "altitudeMode": null, "tessellate": -1, "extrude": 0, "visibility": -1, "drawOrder": null, "icon": null, "Type": "Verpleeghuis en verzorgingshuis", "layer": "Z10", "path": "\/Users\/hiddodeboer\/Downloads\/Z10.kml" }, "geometry": { "type": "Point", "coordinates": [ 4.3492993, 51.8403668, 0.0 ] } },
{ "type": "Feature", "properties": { "Name": "Careyn Zes Rozen", "description": null, "timestamp": null, "begin": null, "end": null, "altitudeMode": null, "tessellate": -1, "extrude": 0, "visibility": -1, "drawOrder": null, "icon": null, "Type": "Verpleeghuis en verzorgingshuis", "layer": "Z10", "path": "\/Users\/hiddodeboer\/Downloads\/Z10.kml" }, "geometry": { "type": "Point", "coordinates": [ 4.3246702, 51.8555974, 0.0 ] } },
{ "type": "Feature", "properties": { "Name": "Careyn Hart van Groenewoud", "description": null, "timestamp": null, "begin": null, "end": null, "altitudeMode": null, "tessellate": -1, "extrude": 0, "visibility": -1, "drawOrder": null, "icon": null, "Type": "Verpleeghuis en verzorgingshuis", "layer": "Z10", "path": "\/Users\/hiddodeboer\/Downloads\/Z10.kml" }, "geometry": { "type": "Point", "coordinates": [ 4.3384378000001, 51.8405773, 0.0 ] } },
{ "type": "Feature", "properties": { "Name": "Dagelijks Leven, locatie Het Vredehofhuis", "description": null, "timestamp": null, "begin": null, "end": null, "altitudeMode": null, "tessellate": -1, "extrude": 0, "visibility": -1, "drawOrder": null, "icon": null, "Type": "Particulier woonzorgcentrum", "layer": "Z10", "path": "\/Users\/hiddodeboer\/Downloads\/Z10.kml" }, "geometry": { "type": "Point", "coordinates": [ 4.3233443, 51.8486305, 0.0 ] } },
{ "type": "Feature", "properties": { "Name": "Careyn Herman Gorterhof", "description": null, "timestamp": null, "begin": null, "end": null, "altitudeMode": null, "tessellate": -1, "extrude": 0, "visibility": -1, "drawOrder": null, "icon": null, "Type": "Verpleeghuis en verzorgingshuis", "layer": "Z10", "path": "\/Users\/hiddodeboer\/Downloads\/Z10.kml" }, "geometry": { "type": "Point", "coordinates": [ 4.3161489, 51.8540261, 0.0 ] } },
{ "type": "Feature", "properties": { "Name": "Humanitas Het Terras aan de Maas", "description": null, "timestamp": null, "begin": null, "end": null, "altitudeMode": null, "tessellate": -1, "extrude": 0, "visibility": -1, "drawOrder": null, "icon": null, "Type": "Verpleeghuis en verzorgingshuis", "layer": "Z10", "path": "\/Users\/hiddodeboer\/Downloads\/Z10.kml" }, "geometry": { "type": "Point", "coordinates": [ 4.3434956, 51.8522912, 0.0 ] } },
{ "type": "Feature", "properties": { "Name": "Hospice en VPTZ de Waterlelie", "description": null, "timestamp": null, "begin": null, "end": null, "altitudeMode": null, "tessellate": -1, "extrude": 0, "visibility": -1, "drawOrder": null, "icon": null, "Type": "Hospice", "layer": "Z10", "path": "\/Users\/hiddodeboer\/Downloads\/Z10.kml" }, "geometry": { "type": "Point", "coordinates": [ 4.3243321, 51.8485945, 0.0 ] } },
{ "type": "Feature", "properties": { "Name": "Schakelring Elzenhoven", "description": null, "timestamp": null, "begin": null, "end": null, "altitudeMode": null, "tessellate": -1, "extrude": 0, "visibility": -1, "drawOrder": null, "icon": null, "Type": "Verpleeghuis en verzorgingshuis", "layer": "Z10", "path": "\/Users\/hiddodeboer\/Downloads\/Z10.kml" }, "geometry": { "type": "Point", "coordinates": [ 5.015999, 51.6745672, 0.0 ] } },
{ "type": "Feature", "properties": { "Name": "De Zorggroep, Woonzorgcentrum Bergh", "description": null, "timestamp": null, "begin": null, "end": null, "altitudeMode": null, "tessellate": -1, "extrude": 0, "visibility": -1, "drawOrder": null, "icon": null, "Type": "Verpleeghuis en verzorgingshuis", "layer": "Z10", "path": "\/Users\/hiddodeboer\/Downloads\/Z10.kml" }, "geometry": { "type": "Point", "coordinates": [ 6.0028131, 51.1417722, 0.0 ] } },
{ "type": "Feature", "properties": { "Name": "Zorgcentrum het Bildt", "description": null, "timestamp": null, "begin": null, "end": null, "altitudeMode": null, "tessellate": -1, "extrude": 0, "visibility": -1, "drawOrder": null, "icon": null, "Type": "Verpleeghuis en verzorgingshuis", "layer": "Z10", "path": "\/Users\/hiddodeboer\/Downloads\/Z10.kml" }, "geometry": { "type": "Point", "coordinates": [ 5.6605833, 53.2749615, 0.0 ] } },
{ "type": "Feature", "properties": { "Name": "Noorderbreedte, Woonzorgcentrum Van Harenshuus", "description": null, "timestamp": null, "begin": null, "end": null, "altitudeMode": null, "tessellate": -1, "extrude": 0, "visibility": -1, "drawOrder": null, "icon": null, "Type": "Verpleeghuis en verzorgingshuis", "layer": "Z10", "path": "\/Users\/hiddodeboer\/Downloads\/Z10.kml" }, "geometry": { "type": "Point", "coordinates": [ 5.6583123, 53.2748874, 0.0 ] } },
{ "type": "Feature", "properties": { "Name": "Groenhuysen, Centrum voor Wonen en Zorg Heidestede", "description": null, "timestamp": null, "begin": null, "end": null, "altitudeMode": null, "tessellate": -1, "extrude": 0, "visibility": -1, "drawOrder": null, "icon": null, "Type": "Verpleeghuis en verzorgingshuis", "layer": "Z10", "path": "\/Users\/hiddodeboer\/Downloads\/Z10.kml" }, "geometry": { "type": "Point", "coordinates": [ 4.5905627, 51.5527044, 0.0 ] } },
{ "type": "Feature", "properties": { "Name": "Woonzorg BCM", "description": null, "timestamp": null, "begin": null, "end": null, "altitudeMode": null, "tessellate": -1, "extrude": 0, "visibility": -1, "drawOrder": null, "icon": null, "Type": "Organisatie", "layer": "Z10", "path": "\/Users\/hiddodeboer\/Downloads\/Z10.kml" }, "geometry": { "type": "Point", "coordinates": [ 6.9508067, 52.9920966, 0.0 ] } },
{ "type": "Feature", "properties": { "Name": "Hospice Veen en Wolden, Tineke Breider Huis", "description": null, "timestamp": null, "begin": null, "end": null, "altitudeMode": null, "tessellate": -1, "extrude": 0, "visibility": -1, "drawOrder": null, "icon": null, "Type": "Hospice", "layer": "Z10", "path": "\/Users\/hiddodeboer\/Downloads\/Z10.kml" }, "geometry": { "type": "Point", "coordinates": [ 6.9367874, 53.0025993, 0.0 ] } },
{ "type": "Feature", "properties": { "Name": "Woonzorg BCM, Woon- en Zorgcentrum Maarsheerd", "description": null, "timestamp": null, "begin": null, "end": null, "altitudeMode": null, "tessellate": -1, "extrude": 0, "visibility": -1, "drawOrder": null, "icon": null, "Type": "Verpleeghuis en verzorgingshuis", "layer": "Z10", "path": "\/Users\/hiddodeboer\/Downloads\/Z10.kml" }, "geometry": { "type": "Point", "coordinates": [ 6.9495023, 52.9932304, 0.0 ] } },
{ "type": "Feature", "properties": { "Name": "Zorggroep Meander, Woonzorgcentrum Parkheem", "description": null, "timestamp": null, "begin": null, "end": null, "altitudeMode": null, "tessellate": -1, "extrude": 0, "visibility": -1, "drawOrder": null, "icon": null, "Type": "Verpleeghuis en verzorgingshuis", "layer": "Z10", "path": "\/Users\/hiddodeboer\/Downloads\/Z10.kml" }, "geometry": { "type": "Point", "coordinates": [ 6.9540694, 52.9839673, 0.0 ] } },
{ "type": "Feature", "properties": { "Name": "Groenhuysen, Centrum voor Wonen en Zorg De Blomhof", "description": null, "timestamp": null, "begin": null, "end": null, "altitudeMode": null, "tessellate": -1, "extrude": 0, "visibility": -1, "drawOrder": null, "icon": null, "Type": "Verpleeghuis en verzorgingshuis", "layer": "Z10", "path": "\/Users\/hiddodeboer\/Downloads\/Z10.kml" }, "geometry": { "type": "Point", "coordinates": [ 4.5124359, 51.6120936, 0.0 ] } },
{ "type": "Feature", "properties": { "Name": "Zorgspectrum Het Zand, locatie De Berghorst", "description": null, "timestamp": null, "begin": null, "end": null, "altitudeMode": null, "tessellate": -1, "extrude": 0, "visibility": -1, "drawOrder": null, "icon": null, "Type": "Verpleeghuis en verzorgingshuis", "layer": "Z10", "path": "\/Users\/hiddodeboer\/Downloads\/Z10.kml" }, "geometry": { "type": "Point", "coordinates": [ 6.2056454, 52.6494793, 0.0 ] } },
{ "type": "Feature", "properties": { "Name": "Stichting tanteLouise, Zorgcentrum Onze Stede", "description": null, "timestamp": null, "begin": null, "end": null, "altitudeMode": null, "tessellate": -1, "extrude": 0, "visibility": -1, "drawOrder": null, "icon": null, "Type": "Verpleeghuis en verzorgingshuis", "layer": "Z10", "path": "\/Users\/hiddodeboer\/Downloads\/Z10.kml" }, "geometry": { "type": "Point", "coordinates": [ 4.3208639, 51.5859905, 0.0 ] } },
{ "type": "Feature", "properties": { "Name": "Zorghuys Steenbergen", "description": null, "timestamp": null, "begin": null, "end": null, "altitudeMode": null, "tessellate": -1, "extrude": 0, "visibility": -1, "drawOrder": null, "icon": null, "Type": "Particulier woonzorgcentrum", "layer": "Z10", "path": "\/Users\/hiddodeboer\/Downloads\/Z10.kml" }, "geometry": { "type": "Point", "coordinates": [ 4.3119416, 51.5782679, 0.0 ] } },
{ "type": "Feature", "properties": { "Name": "Zorggroep Noorderboog, Zonnekamp Geriatrische Revalidatie", "description": null, "timestamp": null, "begin": null, "end": null, "altitudeMode": null, "tessellate": -1, "extrude": 0, "visibility": -1, "drawOrder": null, "icon": null, "Type": "Verpleeghuis en verzorgingshuis", "layer": "Z10", "path": "\/Users\/hiddodeboer\/Downloads\/Z10.kml" }, "geometry": { "type": "Point", "coordinates": [ 6.1245018, 52.7832184, 0.0 ] } },
{ "type": "Feature", "properties": { "Name": "Zorggroep Noorderboog, Zonnekamp", "description": null, "timestamp": null, "begin": null, "end": null, "altitudeMode": null, "tessellate": -1, "extrude": 0, "visibility": -1, "drawOrder": null, "icon": null, "Type": "Verpleeghuis en verzorgingshuis", "layer": "Z10", "path": "\/Users\/hiddodeboer\/Downloads\/Z10.kml" }, "geometry": { "type": "Point", "coordinates": [ 6.1245018, 52.7832184, 0.0 ] } },
{ "type": "Feature", "properties": { "Name": "Zorggroep Noorderboog, Nijenstede", "description": null, "timestamp": null, "begin": null, "end": null, "altitudeMode": null, "tessellate": -1, "extrude": 0, "visibility": -1, "drawOrder": null, "icon": null, "Type": "Verpleeghuis en verzorgingshuis", "layer": "Z10", "path": "\/Users\/hiddodeboer\/Downloads\/Z10.kml" }, "geometry": { "type": "Point", "coordinates": [ 6.1145347, 52.7890673, 0.0 ] } },
{ "type": "Feature", "properties": { "Name": "Zorggroep Oude en Nieuwe Land, Kleinschalig wonen De Meenthehof", "description": null, "timestamp": null, "begin": null, "end": null, "altitudeMode": null, "tessellate": -1, "extrude": 0, "visibility": -1, "drawOrder": null, "icon": null, "Type": "Verpleeghuis en verzorgingshuis", "layer": "Z10", "path": "\/Users\/hiddodeboer\/Downloads\/Z10.kml" }, "geometry": { "type": "Point", "coordinates": [ 6.1250828, 52.7942524, 0.0 ] } },
{ "type": "Feature", "properties": { "Name": "Zorggroep Noorderboog, De Woonark", "description": null, "timestamp": null, "begin": null, "end": null, "altitudeMode": null, "tessellate": -1, "extrude": 0, "visibility": -1, "drawOrder": null, "icon": null, "Type": "Verpleeghuis en verzorgingshuis", "layer": "Z10", "path": "\/Users\/hiddodeboer\/Downloads\/Z10.kml" }, "geometry": { "type": "Point", "coordinates": [ 6.1245018, 52.7832184, 0.0 ] } },
{ "type": "Feature", "properties": { "Name": "Hospice Steenwijkerland, Het Riemkehuis", "description": null, "timestamp": null, "begin": null, "end": null, "altitudeMode": null, "tessellate": -1, "extrude": 0, "visibility": -1, "drawOrder": null, "icon": null, "Type": "Hospice", "layer": "Z10", "path": "\/Users\/hiddodeboer\/Downloads\/Z10.kml" }, "geometry": { "type": "Point", "coordinates": [ 6.1183365, 52.7881194, 0.0 ] } },
{ "type": "Feature", "properties": { "Name": "Zorggroep Oude en Nieuwe Land", "description": null, "timestamp": null, "begin": null, "end": null, "altitudeMode": null, "tessellate": -1, "extrude": 0, "visibility": -1, "drawOrder": null, "icon": null, "Type": "Organisatie", "layer": "Z10", "path": "\/Users\/hiddodeboer\/Downloads\/Z10.kml" }, "geometry": { "type": "Point", "coordinates": [ 6.1111083000001, 52.7911707, 0.0 ] } },
{ "type": "Feature", "properties": { "Name": "Dagelijks Leven, locatie Het Voetelinkhuis", "description": null, "timestamp": null, "begin": null, "end": null, "altitudeMode": null, "tessellate": -1, "extrude": 0, "visibility": -1, "drawOrder": null, "icon": null, "Type": "Particulier woonzorgcentrum", "layer": "Z10", "path": "\/Users\/hiddodeboer\/Downloads\/Z10.kml" }, "geometry": { "type": "Point", "coordinates": [ 6.1089729, 52.7851925, 0.0 ] } },
{ "type": "Feature", "properties": { "Name": "Herbergier Steenwijkerwold", "description": null, "timestamp": null, "begin": null, "end": null, "altitudeMode": null, "tessellate": -1, "extrude": 0, "visibility": -1, "drawOrder": null, "icon": null, "Type": "Particulier woonzorgcentrum", "layer": "Z10", "path": "\/Users\/hiddodeboer\/Downloads\/Z10.kml" }, "geometry": { "type": "Point", "coordinates": [ 6.056135, 52.8015089, 0.0 ] } },
{ "type": "Feature", "properties": { "Name": "Zuyderland Zorgcentra - Verpleegunit Stein", "description": null, "timestamp": null, "begin": null, "end": null, "altitudeMode": null, "tessellate": -1, "extrude": 0, "visibility": -1, "drawOrder": null, "icon": null, "Type": "Verpleeghuis en verzorgingshuis", "layer": "Z10", "path": "\/Users\/hiddodeboer\/Downloads\/Z10.kml" }, "geometry": { "type": "Point", "coordinates": [ 5.7643729, 50.9685497, 0.0 ] } },
{ "type": "Feature", "properties": { "Name": "Vivantes, woonzorgcentrum Moutheuvel", "description": null, "timestamp": null, "begin": null, "end": null, "altitudeMode": null, "tessellate": -1, "extrude": 0, "visibility": -1, "drawOrder": null, "icon": null, "Type": "Verpleeghuis en verzorgingshuis", "layer": "Z10", "path": "\/Users\/hiddodeboer\/Downloads\/Z10.kml" }, "geometry": { "type": "Point", "coordinates": [ 5.7643729, 50.9685497, 0.0 ] } },
{ "type": "Feature", "properties": { "Name": "Friese Staten, locatie Hayema State", "description": null, "timestamp": null, "begin": null, "end": null, "altitudeMode": null, "tessellate": -1, "extrude": 0, "visibility": -1, "drawOrder": null, "icon": null, "Type": "Particulier woonzorgcentrum", "layer": "Z10", "path": "\/Users\/hiddodeboer\/Downloads\/Z10.kml" }, "geometry": { "type": "Point", "coordinates": [ 5.7547041, 53.2603821, 0.0 ] } },
{ "type": "Feature", "properties": { "Name": "Idesta zorggroep, Doarpshiem Stiens", "description": null, "timestamp": null, "begin": null, "end": null, "altitudeMode": null, "tessellate": -1, "extrude": 0, "visibility": -1, "drawOrder": null, "icon": null, "Type": "Particulier woonzorgcentrum", "layer": "Z10", "path": "\/Users\/hiddodeboer\/Downloads\/Z10.kml" }, "geometry": { "type": "Point", "coordinates": [ 5.760485, 53.2634552, 0.0 ] } },
{ "type": "Feature", "properties": { "Name": "Palet, locatie Petterhústerstate", "description": null, "timestamp": null, "begin": null, "end": null, "altitudeMode": null, "tessellate": -1, "extrude": 0, "visibility": -1, "drawOrder": null, "icon": null, "Type": "Verpleeghuis en verzorgingshuis", "layer": "Z10", "path": "\/Users\/hiddodeboer\/Downloads\/Z10.kml" }, "geometry": { "type": "Point", "coordinates": [ 5.762015, 53.2601618, 0.0 ] } },
{ "type": "Feature", "properties": { "Name": "Palet, locatie Skilhiem", "description": null, "timestamp": null, "begin": null, "end": null, "altitudeMode": null, "tessellate": -1, "extrude": 0, "visibility": -1, "drawOrder": null, "icon": null, "Type": "Verpleeghuis en verzorgingshuis", "layer": "Z10", "path": "\/Users\/hiddodeboer\/Downloads\/Z10.kml" }, "geometry": { "type": "Point", "coordinates": [ 5.7538356, 53.2639789, 0.0 ] } },
{ "type": "Feature", "properties": { "Name": "WelThuis Wilgenhoven", "description": null, "timestamp": null, "begin": null, "end": null, "altitudeMode": null, "tessellate": -1, "extrude": 0, "visibility": -1, "drawOrder": null, "icon": null, "Type": "Verpleeghuis en verzorgingshuis", "layer": "Z10", "path": "\/Users\/hiddodeboer\/Downloads\/Z10.kml" }, "geometry": { "type": "Point", "coordinates": [ 4.7726748, 51.9748184, 0.0 ] } },
{ "type": "Feature", "properties": { "Name": "Stichting Land van Horne, Woonzorgcentrum Kwartierstaete", "description": null, "timestamp": null, "begin": null, "end": null, "altitudeMode": null, "tessellate": -1, "extrude": 0, "visibility": -1, "drawOrder": null, "icon": null, "Type": "Verpleeghuis en verzorgingshuis", "layer": "Z10", "path": "\/Users\/hiddodeboer\/Downloads\/Z10.kml" }, "geometry": { "type": "Point", "coordinates": [ 5.7237006, 51.19226, 0.0 ] } },
{ "type": "Feature", "properties": { "Name": "Stichting Land van Horne, Zorgcentrum Rust in Roy", "description": null, "timestamp": null, "begin": null, "end": null, "altitudeMode": null, "tessellate": -1, "extrude": 0, "visibility": -1, "drawOrder": null, "icon": null, "Type": "Verpleeghuis en verzorgingshuis", "layer": "Z10", "path": "\/Users\/hiddodeboer\/Downloads\/Z10.kml" }, "geometry": { "type": "Point", "coordinates": [ 5.7248085, 51.1917842, 0.0 ] } },
{ "type": "Feature", "properties": { "Name": "Zorgwaard, locatie De Hoge Weide", "description": null, "timestamp": null, "begin": null, "end": null, "altitudeMode": null, "tessellate": -1, "extrude": 0, "visibility": -1, "drawOrder": null, "icon": null, "Type": "Verpleeghuis en verzorgingshuis", "layer": "Z10", "path": "\/Users\/hiddodeboer\/Downloads\/Z10.kml" }, "geometry": { "type": "Point", "coordinates": [ 4.5469253, 51.7516386, 0.0 ] } },
{ "type": "Feature", "properties": { "Name": "De Friese Wouden, Woonzorgcentrum 't Suyderhuys", "description": null, "timestamp": null, "begin": null, "end": null, "altitudeMode": null, "tessellate": -1, "extrude": 0, "visibility": -1, "drawOrder": null, "icon": null, "Type": "Verpleeghuis en verzorgingshuis", "layer": "Z10", "path": "\/Users\/hiddodeboer\/Downloads\/Z10.kml" }, "geometry": { "type": "Point", "coordinates": [ 6.1628888, 53.1783564, 0.0 ] } },
{ "type": "Feature", "properties": { "Name": "Zorgcentrum Aan de Baan", "description": null, "timestamp": null, "begin": null, "end": null, "altitudeMode": null, "tessellate": -1, "extrude": 0, "visibility": -1, "drawOrder": null, "icon": null, "Type": "Particulier woonzorgcentrum", "layer": "Z10", "path": "\/Users\/hiddodeboer\/Downloads\/Z10.kml" }, "geometry": { "type": "Point", "coordinates": [ 5.8574447, 51.067699, 0.0 ] } },
{ "type": "Feature", "properties": { "Name": "Zuyderland Zorgcentra - Hospice Mariaveld", "description": null, "timestamp": null, "begin": null, "end": null, "altitudeMode": null, "tessellate": -1, "extrude": 0, "visibility": -1, "drawOrder": null, "icon": null, "Type": "Hospice", "layer": "Z10", "path": "\/Users\/hiddodeboer\/Downloads\/Z10.kml" }, "geometry": { "type": "Point", "coordinates": [ 5.8630851, 51.0637651, 0.0 ] } },
{ "type": "Feature", "properties": { "Name": "Zuyderland Zorgcentra - Vastrada", "description": null, "timestamp": null, "begin": null, "end": null, "altitudeMode": null, "tessellate": -1, "extrude": 0, "visibility": -1, "drawOrder": null, "icon": null, "Type": "Verpleeghuis en verzorgingshuis", "layer": "Z10", "path": "\/Users\/hiddodeboer\/Downloads\/Z10.kml" }, "geometry": { "type": "Point", "coordinates": [ 5.8517479, 51.0611299, 0.0 ] } },
{ "type": "Feature", "properties": { "Name": "De Zorggroep, Zorgcentrum Sint Jan Baptist", "description": null, "timestamp": null, "begin": null, "end": null, "altitudeMode": null, "tessellate": -1, "extrude": 0, "visibility": -1, "drawOrder": null, "icon": null, "Type": "Verpleeghuis en verzorgingshuis", "layer": "Z10", "path": "\/Users\/hiddodeboer\/Downloads\/Z10.kml" }, "geometry": { "type": "Point", "coordinates": [ 6.0379732, 51.2330457, 0.0 ] } },
{ "type": "Feature", "properties": { "Name": "De Zorggroep, Woonzorgcentrum Amaliahof", "description": null, "timestamp": null, "begin": null, "end": null, "altitudeMode": null, "tessellate": -1, "extrude": 0, "visibility": -1, "drawOrder": null, "icon": null, "Type": "Verpleeghuis en verzorgingshuis", "layer": "Z10", "path": "\/Users\/hiddodeboer\/Downloads\/Z10.kml" }, "geometry": { "type": "Point", "coordinates": [ 6.0367911, 51.2284373, 0.0 ] } },
{ "type": "Feature", "properties": { "Name": "WZU Veluwe, Woonzorgcentrum Mariposa", "description": null, "timestamp": null, "begin": null, "end": null, "altitudeMode": null, "tessellate": -1, "extrude": 0, "visibility": -1, "drawOrder": null, "icon": null, "Type": "Verpleeghuis en verzorgingshuis", "layer": "Z10", "path": "\/Users\/hiddodeboer\/Downloads\/Z10.kml" }, "geometry": { "type": "Point", "coordinates": [ 5.8825351, 52.4160827, 0.0 ] } },
{ "type": "Feature", "properties": { "Name": "Woonzorggroep Samen, locatie De Zandstee", "description": null, "timestamp": null, "begin": null, "end": null, "altitudeMode": null, "tessellate": -1, "extrude": 0, "visibility": -1, "drawOrder": null, "icon": null, "Type": "Verpleeghuis en verzorgingshuis", "layer": "Z10", "path": "\/Users\/hiddodeboer\/Downloads\/Z10.kml" }, "geometry": { "type": "Point", "coordinates": [ 4.7561151, 52.8363854, 0.0 ] } },
{ "type": "Feature", "properties": { "Name": "De Zorggroep, Verzorgingshuis Sint Julia", "description": null, "timestamp": null, "begin": null, "end": null, "altitudeMode": null, "tessellate": -1, "extrude": 0, "visibility": -1, "drawOrder": null, "icon": null, "Type": "Verpleeghuis en verzorgingshuis", "layer": "Z10", "path": "\/Users\/hiddodeboer\/Downloads\/Z10.kml" }, "geometry": { "type": "Point", "coordinates": [ 6.1424292, 51.3462571, 0.0 ] } },
{ "type": "Feature", "properties": { "Name": "De Zorggroep, De Nieuwe Munt, Solidus - Revalidatiezorg", "description": null, "timestamp": null, "begin": null, "end": null, "altitudeMode": null, "tessellate": -1, "extrude": 0, "visibility": -1, "drawOrder": null, "icon": null, "Type": "Verpleeghuis en verzorgingshuis", "layer": "Z10", "path": "\/Users\/hiddodeboer\/Downloads\/Z10.kml" }, "geometry": { "type": "Point", "coordinates": [ 6.1440986, 51.3471347, 0.0 ] } },
{ "type": "Feature", "properties": { "Name": "Zorghuis Tegelen", "description": null, "timestamp": null, "begin": null, "end": null, "altitudeMode": null, "tessellate": -1, "extrude": 0, "visibility": -1, "drawOrder": null, "icon": null, "Type": "Particulier woonzorgcentrum", "layer": "Z10", "path": "\/Users\/hiddodeboer\/Downloads\/Z10.kml" }, "geometry": { "type": "Point", "coordinates": [ 6.1483503, 51.3367744, 0.0 ] } },
{ "type": "Feature", "properties": { "Name": "De Zorggroep, De Nieuwe Munt", "description": null, "timestamp": null, "begin": null, "end": null, "altitudeMode": null, "tessellate": -1, "extrude": 0, "visibility": -1, "drawOrder": null, "icon": null, "Type": "Verpleeghuis en verzorgingshuis", "layer": "Z10", "path": "\/Users\/hiddodeboer\/Downloads\/Z10.kml" }, "geometry": { "type": "Point", "coordinates": [ 6.1440986, 51.3471347, 0.0 ] } },
{ "type": "Feature", "properties": { "Name": "Dagelijks Leven, locatie Het Annahuis", "description": null, "timestamp": null, "begin": null, "end": null, "altitudeMode": null, "tessellate": -1, "extrude": 0, "visibility": -1, "drawOrder": null, "icon": null, "Type": "Particulier woonzorgcentrum", "layer": "Z10", "path": "\/Users\/hiddodeboer\/Downloads\/Z10.kml" }, "geometry": { "type": "Point", "coordinates": [ 6.1478439, 51.3361182, 0.0 ] } },
{ "type": "Feature", "properties": { "Name": "Zorggroep Groningen, locatie Innersdijk", "description": null, "timestamp": null, "begin": null, "end": null, "altitudeMode": null, "tessellate": -1, "extrude": 0, "visibility": -1, "drawOrder": null, "icon": null, "Type": "Verpleeghuis en verzorgingshuis", "layer": "Z10", "path": "\/Users\/hiddodeboer\/Downloads\/Z10.kml" }, "geometry": { "type": "Point", "coordinates": [ 6.7068138, 53.2832041, 0.0 ] } },
{ "type": "Feature", "properties": { "Name": "Zorggroep Groningen, locatie Bloemhof", "description": null, "timestamp": null, "begin": null, "end": null, "altitudeMode": null, "tessellate": -1, "extrude": 0, "visibility": -1, "drawOrder": null, "icon": null, "Type": "Verpleeghuis en verzorgingshuis", "layer": "Z10", "path": "\/Users\/hiddodeboer\/Downloads\/Z10.kml" }, "geometry": { "type": "Point", "coordinates": [ 6.6958205, 53.2770307, 0.0 ] } },
{ "type": "Feature", "properties": { "Name": "WIJdezorg, Zorglocatie Aarhoeve", "description": null, "timestamp": null, "begin": null, "end": null, "altitudeMode": null, "tessellate": -1, "extrude": 0, "visibility": -1, "drawOrder": null, "icon": null, "Type": "Verpleeghuis en verzorgingshuis", "layer": "Z10", "path": "\/Users\/hiddodeboer\/Downloads\/Z10.kml" }, "geometry": { "type": "Point", "coordinates": [ 4.7092257, 52.1949838, 0.0 ] } },
{ "type": "Feature", "properties": { "Name": "Zorggroep Meander, Woonservicecentrum Kloosterheerd", "description": null, "timestamp": null, "begin": null, "end": null, "altitudeMode": null, "tessellate": -1, "extrude": 0, "visibility": -1, "drawOrder": null, "icon": null, "Type": "Verpleeghuis en verzorgingshuis", "layer": "Z10", "path": "\/Users\/hiddodeboer\/Downloads\/Z10.kml" }, "geometry": { "type": "Point", "coordinates": [ 7.0582249, 52.8783221, 0.0 ] } },
{ "type": "Feature", "properties": { "Name": "Zorggroep Meander, Woonzorgcentrum Borg Westerwolde", "description": null, "timestamp": null, "begin": null, "end": null, "altitudeMode": null, "tessellate": -1, "extrude": 0, "visibility": -1, "drawOrder": null, "icon": null, "Type": "Verpleeghuis en verzorgingshuis", "layer": "Z10", "path": "\/Users\/hiddodeboer\/Downloads\/Z10.kml" }, "geometry": { "type": "Point", "coordinates": [ 7.0571902, 52.8782332, 0.0 ] } },
{ "type": "Feature", "properties": { "Name": "Pieter van Foreest, Woonzorgcentrum Duinhof", "description": null, "timestamp": null, "begin": null, "end": null, "altitudeMode": null, "tessellate": -1, "extrude": 0, "visibility": -1, "drawOrder": null, "icon": null, "Type": "Verpleeghuis en verzorgingshuis", "layer": "Z10", "path": "\/Users\/hiddodeboer\/Downloads\/Z10.kml" }, "geometry": { "type": "Point", "coordinates": [ 4.1695007000001, 52.030738, 0.0 ] } },
{ "type": "Feature", "properties": { "Name": "Herbergier Terborg", "description": null, "timestamp": null, "begin": null, "end": null, "altitudeMode": null, "tessellate": -1, "extrude": 0, "visibility": -1, "drawOrder": null, "icon": null, "Type": "Particulier woonzorgcentrum", "layer": "Z10", "path": "\/Users\/hiddodeboer\/Downloads\/Z10.kml" }, "geometry": { "type": "Point", "coordinates": [ 6.3555826, 51.9192255, 0.0 ] } },
{ "type": "Feature", "properties": { "Name": "Azora, Verpleeg- en revalidatiecentrum Antonia", "description": null, "timestamp": null, "begin": null, "end": null, "altitudeMode": null, "tessellate": -1, "extrude": 0, "visibility": -1, "drawOrder": null, "icon": null, "Type": "Verpleeghuis en verzorgingshuis", "layer": "Z10", "path": "\/Users\/hiddodeboer\/Downloads\/Z10.kml" }, "geometry": { "type": "Point", "coordinates": [ 6.3589163, 51.9224555, 0.0 ] } },
{ "type": "Feature", "properties": { "Name": "Azora", "description": null, "timestamp": null, "begin": null, "end": null, "altitudeMode": null, "tessellate": -1, "extrude": 0, "visibility": -1, "drawOrder": null, "icon": null, "Type": "Organisatie", "layer": "Z10", "path": "\/Users\/hiddodeboer\/Downloads\/Z10.kml" }, "geometry": { "type": "Point", "coordinates": [ 6.3589163, 51.9224555, 0.0 ] } },
{ "type": "Feature", "properties": { "Name": "Surplus, woonzorgcentrum Antonius Abt", "description": null, "timestamp": null, "begin": null, "end": null, "altitudeMode": null, "tessellate": -1, "extrude": 0, "visibility": -1, "drawOrder": null, "icon": null, "Type": "Verpleeghuis en verzorgingshuis", "layer": "Z10", "path": "\/Users\/hiddodeboer\/Downloads\/Z10.kml" }, "geometry": { "type": "Point", "coordinates": [ 4.7531377, 51.6423559, 0.0 ] } },
{ "type": "Feature", "properties": { "Name": "Elkander, Zorgcentrum Spiker", "description": null, "timestamp": null, "begin": null, "end": null, "altitudeMode": null, "tessellate": -1, "extrude": 0, "visibility": -1, "drawOrder": null, "icon": null, "Type": "Verpleeghuis en verzorgingshuis", "layer": "Z10", "path": "\/Users\/hiddodeboer\/Downloads\/Z10.kml" }, "geometry": { "type": "Point", "coordinates": [ 5.9683172, 53.3825397, 0.0 ] } },
{ "type": "Feature", "properties": { "Name": "ZorgSaam Wonen & Zorg", "description": null, "timestamp": null, "begin": null, "end": null, "altitudeMode": null, "tessellate": -1, "extrude": 0, "visibility": -1, "drawOrder": null, "icon": null, "Type": "Organisatie", "layer": "Z10", "path": "\/Users\/hiddodeboer\/Downloads\/Z10.kml" }, "geometry": { "type": "Point", "coordinates": [ 3.860112, 51.3091852, 0.0 ] } },
{ "type": "Feature", "properties": { "Name": "SVRZ Ter Schorre, centrum voor zorg en revalidatie", "description": null, "timestamp": null, "begin": null, "end": null, "altitudeMode": null, "tessellate": -1, "extrude": 0, "visibility": -1, "drawOrder": null, "icon": null, "Type": "Verpleeghuis en verzorgingshuis", "layer": "Z10", "path": "\/Users\/hiddodeboer\/Downloads\/Z10.kml" }, "geometry": { "type": "Point", "coordinates": [ 3.8471463, 51.3189469, 0.0 ] } },
{ "type": "Feature", "properties": { "Name": "SVRZ De Blide, zorgcentrum", "description": null, "timestamp": null, "begin": null, "end": null, "altitudeMode": null, "tessellate": -1, "extrude": 0, "visibility": -1, "drawOrder": null, "icon": null, "Type": "Verpleeghuis en verzorgingshuis", "layer": "Z10", "path": "\/Users\/hiddodeboer\/Downloads\/Z10.kml" }, "geometry": { "type": "Point", "coordinates": [ 3.8387304, 51.3262472, 0.0 ] } },
{ "type": "Feature", "properties": { "Name": "ZorgSaam Bachten Dieke", "description": null, "timestamp": null, "begin": null, "end": null, "altitudeMode": null, "tessellate": -1, "extrude": 0, "visibility": -1, "drawOrder": null, "icon": null, "Type": "Verpleeghuis en verzorgingshuis", "layer": "Z10", "path": "\/Users\/hiddodeboer\/Downloads\/Z10.kml" }, "geometry": { "type": "Point", "coordinates": [ 3.8416363, 51.3338245, 0.0 ] } },
{ "type": "Feature", "properties": { "Name": "Stichting Hospice Zeeuwsch-Vlaanderen", "description": null, "timestamp": null, "begin": null, "end": null, "altitudeMode": null, "tessellate": -1, "extrude": 0, "visibility": -1, "drawOrder": null, "icon": null, "Type": "Hospice", "layer": "Z10", "path": "\/Users\/hiddodeboer\/Downloads\/Z10.kml" }, "geometry": { "type": "Point", "coordinates": [ 3.8371188, 51.3332921, 0.0 ] } },
{ "type": "Feature", "properties": { "Name": "SVRZ Ter Schorre, woongroepen Máxima", "description": null, "timestamp": null, "begin": null, "end": null, "altitudeMode": null, "tessellate": -1, "extrude": 0, "visibility": -1, "drawOrder": null, "icon": null, "Type": "Verpleeghuis en verzorgingshuis", "layer": "Z10", "path": "\/Users\/hiddodeboer\/Downloads\/Z10.kml" }, "geometry": { "type": "Point", "coordinates": [ 3.8561726, 51.3347383, 0.0 ] } },
{ "type": "Feature", "properties": { "Name": "Het Gastenhuis Teteringen", "description": null, "timestamp": null, "begin": null, "end": null, "altitudeMode": null, "tessellate": -1, "extrude": 0, "visibility": -1, "drawOrder": null, "icon": null, "Type": "Particulier woonzorgcentrum", "layer": "Z10", "path": "\/Users\/hiddodeboer\/Downloads\/Z10.kml" }, "geometry": { "type": "Point", "coordinates": [ 4.8173709, 51.6124032, 0.0 ] } },
{ "type": "Feature", "properties": { "Name": "Park Zuiderhout - Wonen", "description": null, "timestamp": null, "begin": null, "end": null, "altitudeMode": null, "tessellate": -1, "extrude": 0, "visibility": -1, "drawOrder": null, "icon": null, "Type": "Verpleeghuis en verzorgingshuis", "layer": "Z10", "path": "\/Users\/hiddodeboer\/Downloads\/Z10.kml" }, "geometry": { "type": "Point", "coordinates": [ 4.8314038, 51.6171538, 0.0 ] } },
{ "type": "Feature", "properties": { "Name": "Park Zuiderhout", "description": null, "timestamp": null, "begin": null, "end": null, "altitudeMode": null, "tessellate": -1, "extrude": 0, "visibility": -1, "drawOrder": null, "icon": null, "Type": "Organisatie", "layer": "Z10", "path": "\/Users\/hiddodeboer\/Downloads\/Z10.kml" }, "geometry": { "type": "Point", "coordinates": [ 4.8314038, 51.6171538, 0.0 ] } },
{ "type": "Feature", "properties": { "Name": "SVRZ Tholen, zorgcentrum Ten Anker", "description": null, "timestamp": null, "begin": null, "end": null, "altitudeMode": null, "tessellate": -1, "extrude": 0, "visibility": -1, "drawOrder": null, "icon": null, "Type": "Verpleeghuis en verzorgingshuis", "layer": "Z10", "path": "\/Users\/hiddodeboer\/Downloads\/Z10.kml" }, "geometry": { "type": "Point", "coordinates": [ 4.2201536, 51.5372824, 0.0 ] } },
{ "type": "Feature", "properties": { "Name": "SVRZ Tholen, groepswonen dementie Zwink", "description": null, "timestamp": null, "begin": null, "end": null, "altitudeMode": null, "tessellate": -1, "extrude": 0, "visibility": -1, "drawOrder": null, "icon": null, "Type": "Verpleeghuis en verzorgingshuis", "layer": "Z10", "path": "\/Users\/hiddodeboer\/Downloads\/Z10.kml" }, "geometry": { "type": "Point", "coordinates": [ 4.2101534, 51.535127, 0.0 ] } },
{ "type": "Feature", "properties": { "Name": "Proteion Zorgcentrum Sterrebosch", "description": null, "timestamp": null, "begin": null, "end": null, "altitudeMode": null, "tessellate": -1, "extrude": 0, "visibility": -1, "drawOrder": null, "icon": null, "Type": "Verpleeghuis en verzorgingshuis", "layer": "Z10", "path": "\/Users\/hiddodeboer\/Downloads\/Z10.kml" }, "geometry": { "type": "Point", "coordinates": [ 5.8419371, 51.1589906, 0.0 ] } },
{ "type": "Feature", "properties": { "Name": "Van der Valk Care", "description": null, "timestamp": null, "begin": null, "end": null, "altitudeMode": null, "tessellate": -1, "extrude": 0, "visibility": -1, "drawOrder": null, "icon": null, "Type": "Zorghotel", "layer": "Z10", "path": "\/Users\/hiddodeboer\/Downloads\/Z10.kml" }, "geometry": { "type": "Point", "coordinates": [ 5.4355211, 51.8997866, 0.0 ] } },
{ "type": "Feature", "properties": { "Name": "SZR, Schakelafdeling", "description": null, "timestamp": null, "begin": null, "end": null, "altitudeMode": null, "tessellate": -1, "extrude": 0, "visibility": -1, "drawOrder": null, "icon": null, "Type": "Verpleeghuis en verzorgingshuis", "layer": "Z10", "path": "\/Users\/hiddodeboer\/Downloads\/Z10.kml" }, "geometry": { "type": "Point", "coordinates": [ 5.4150467, 51.8894264, 0.0 ] } },
{ "type": "Feature", "properties": { "Name": "SZR, Vrijthof", "description": null, "timestamp": null, "begin": null, "end": null, "altitudeMode": null, "tessellate": -1, "extrude": 0, "visibility": -1, "drawOrder": null, "icon": null, "Type": "Verpleeghuis en verzorgingshuis", "layer": "Z10", "path": "\/Users\/hiddodeboer\/Downloads\/Z10.kml" }, "geometry": { "type": "Point", "coordinates": [ 5.4125232, 51.8921863, 0.0 ] } },
{ "type": "Feature", "properties": { "Name": "SZR", "description": null, "timestamp": null, "begin": null, "end": null, "altitudeMode": null, "tessellate": -1, "extrude": 0, "visibility": -1, "drawOrder": null, "icon": null, "Type": "Organisatie", "layer": "Z10", "path": "\/Users\/hiddodeboer\/Downloads\/Z10.kml" }, "geometry": { "type": "Point", "coordinates": [ 5.4125232, 51.8921863, 0.0 ] } },
{ "type": "Feature", "properties": { "Name": "STMR, Woonzorgcentrum Westlede", "description": null, "timestamp": null, "begin": null, "end": null, "altitudeMode": null, "tessellate": -1, "extrude": 0, "visibility": -1, "drawOrder": null, "icon": null, "Type": "Verpleeghuis en verzorgingshuis", "layer": "Z10", "path": "\/Users\/hiddodeboer\/Downloads\/Z10.kml" }, "geometry": { "type": "Point", "coordinates": [ 5.42825, 51.8817297, 0.0 ] } },
{ "type": "Feature", "properties": { "Name": "SZR, Walstede", "description": null, "timestamp": null, "begin": null, "end": null, "altitudeMode": null, "tessellate": -1, "extrude": 0, "visibility": -1, "drawOrder": null, "icon": null, "Type": "Verpleeghuis en verzorgingshuis", "layer": "Z10", "path": "\/Users\/hiddodeboer\/Downloads\/Z10.kml" }, "geometry": { "type": "Point", "coordinates": [ 5.4331489, 51.8895015, 0.0 ] } },
{ "type": "Feature", "properties": { "Name": "SZR, Hospice Tiel", "description": null, "timestamp": null, "begin": null, "end": null, "altitudeMode": null, "tessellate": -1, "extrude": 0, "visibility": -1, "drawOrder": null, "icon": null, "Type": "Hospice", "layer": "Z10", "path": "\/Users\/hiddodeboer\/Downloads\/Z10.kml" }, "geometry": { "type": "Point", "coordinates": [ 5.4125232, 51.8921863, 0.0 ] } },
{ "type": "Feature", "properties": { "Name": "SZR, Westerhof", "description": null, "timestamp": null, "begin": null, "end": null, "altitudeMode": null, "tessellate": -1, "extrude": 0, "visibility": -1, "drawOrder": null, "icon": null, "Type": "Verpleeghuis en verzorgingshuis", "layer": "Z10", "path": "\/Users\/hiddodeboer\/Downloads\/Z10.kml" }, "geometry": { "type": "Point", "coordinates": [ 5.428182, 51.881388, 0.0 ] } },
{ "type": "Feature", "properties": { "Name": "STMR", "description": null, "timestamp": null, "begin": null, "end": null, "altitudeMode": null, "tessellate": -1, "extrude": 0, "visibility": -1, "drawOrder": null, "icon": null, "Type": "Organisatie", "layer": "Z10", "path": "\/Users\/hiddodeboer\/Downloads\/Z10.kml" }, "geometry": { "type": "Point", "coordinates": [ 5.4278765, 51.8876176, 0.0 ] } },
{ "type": "Feature", "properties": { "Name": "Zorgcentra De Betuwe, Lingewaarde", "description": null, "timestamp": null, "begin": null, "end": null, "altitudeMode": null, "tessellate": -1, "extrude": 0, "visibility": -1, "drawOrder": null, "icon": null, "Type": "Verpleeghuis en verzorgingshuis", "layer": "Z10", "path": "\/Users\/hiddodeboer\/Downloads\/Z10.kml" }, "geometry": { "type": "Point", "coordinates": [ 5.4247873, 51.8961199, 0.0 ] } },
{ "type": "Feature", "properties": { "Name": "Herbergier Tiel", "description": null, "timestamp": null, "begin": null, "end": null, "altitudeMode": null, "tessellate": -1, "extrude": 0, "visibility": -1, "drawOrder": null, "icon": null, "Type": "Particulier woonzorgcentrum", "layer": "Z10", "path": "\/Users\/hiddodeboer\/Downloads\/Z10.kml" }, "geometry": { "type": "Point", "coordinates": [ 5.4339889, 51.8871552, 0.0 ] } },
{ "type": "Feature", "properties": { "Name": "Zorghuis Tienray", "description": null, "timestamp": null, "begin": null, "end": null, "altitudeMode": null, "tessellate": -1, "extrude": 0, "visibility": -1, "drawOrder": null, "icon": null, "Type": "Particulier woonzorgcentrum", "layer": "Z10", "path": "\/Users\/hiddodeboer\/Downloads\/Z10.kml" }, "geometry": { "type": "Point", "coordinates": [ 6.09295, 51.4965305, 0.0 ] } },
{ "type": "Feature", "properties": { "Name": "Thebe Don Sarto", "description": null, "timestamp": null, "begin": null, "end": null, "altitudeMode": null, "tessellate": -1, "extrude": 0, "visibility": -1, "drawOrder": null, "icon": null, "Type": "Verpleeghuis en verzorgingshuis", "layer": "Z10", "path": "\/Users\/hiddodeboer\/Downloads\/Z10.kml" }, "geometry": { "type": "Point", "coordinates": [ 5.0970677, 51.5411798, 0.0 ] } },
{ "type": "Feature", "properties": { "Name": "Het Laar", "description": null, "timestamp": null, "begin": null, "end": null, "altitudeMode": null, "tessellate": -1, "extrude": 0, "visibility": -1, "drawOrder": null, "icon": null, "Type": "Verpleeghuis en verzorgingshuis", "layer": "Z10", "path": "\/Users\/hiddodeboer\/Downloads\/Z10.kml" }, "geometry": { "type": "Point", "coordinates": [ 5.0589813, 51.544747, 0.0 ] } },
{ "type": "Feature", "properties": { "Name": "De Wever", "description": null, "timestamp": null, "begin": null, "end": null, "altitudeMode": null, "tessellate": -1, "extrude": 0, "visibility": -1, "drawOrder": null, "icon": null, "Type": "Organisatie", "layer": "Z10", "path": "\/Users\/hiddodeboer\/Downloads\/Z10.kml" }, "geometry": { "type": "Point", "coordinates": [ 5.0642528, 51.5778759, 0.0 ] } },
{ "type": "Feature", "properties": { "Name": "De Wever, Den Herdgang", "description": null, "timestamp": null, "begin": null, "end": null, "altitudeMode": null, "tessellate": -1, "extrude": 0, "visibility": -1, "drawOrder": null, "icon": null, "Type": "Verpleeghuis en verzorgingshuis", "layer": "Z10", "path": "\/Users\/hiddodeboer\/Downloads\/Z10.kml" }, "geometry": { "type": "Point", "coordinates": [ 5.0722611, 51.5672372, 0.0 ] } },
{ "type": "Feature", "properties": { "Name": "Huis Convivio", "description": null, "timestamp": null, "begin": null, "end": null, "altitudeMode": null, "tessellate": -1, "extrude": 0, "visibility": -1, "drawOrder": null, "icon": null, "Type": "Verpleeghuis en verzorgingshuis", "layer": "Z10", "path": "\/Users\/hiddodeboer\/Downloads\/Z10.kml" }, "geometry": { "type": "Point", "coordinates": [ 5.0802012, 51.5725436, 0.0 ] } },
{ "type": "Feature", "properties": { "Name": "De Wever, Padua", "description": null, "timestamp": null, "begin": null, "end": null, "altitudeMode": null, "tessellate": -1, "extrude": 0, "visibility": -1, "drawOrder": null, "icon": null, "Type": "Verpleeghuis en verzorgingshuis", "layer": "Z10", "path": "\/Users\/hiddodeboer\/Downloads\/Z10.kml" }, "geometry": { "type": "Point", "coordinates": [ 5.090303, 51.5696586, 0.0 ] } },
{ "type": "Feature", "properties": { "Name": "De Wever, Hospice de Sporen", "description": null, "timestamp": null, "begin": null, "end": null, "altitudeMode": null, "tessellate": -1, "extrude": 0, "visibility": -1, "drawOrder": null, "icon": null, "Type": "Hospice", "layer": "Z10", "path": "\/Users\/hiddodeboer\/Downloads\/Z10.kml" }, "geometry": { "type": "Point", "coordinates": [ 5.0097982, 51.5616231, 0.0 ] } },
{ "type": "Feature", "properties": { "Name": "De Wever, Reyshoeve", "description": null, "timestamp": null, "begin": null, "end": null, "altitudeMode": null, "tessellate": -1, "extrude": 0, "visibility": -1, "drawOrder": null, "icon": null, "Type": "Verpleeghuis en verzorgingshuis", "layer": "Z10", "path": "\/Users\/hiddodeboer\/Downloads\/Z10.kml" }, "geometry": { "type": "Point", "coordinates": [ 5.0084408, 51.5825893, 0.0 ] } },
{ "type": "Feature", "properties": { "Name": "Herbergier Tilburg", "description": null, "timestamp": null, "begin": null, "end": null, "altitudeMode": null, "tessellate": -1, "extrude": 0, "visibility": -1, "drawOrder": null, "icon": null, "Type": "Particulier woonzorgcentrum", "layer": "Z10", "path": "\/Users\/hiddodeboer\/Downloads\/Z10.kml" }, "geometry": { "type": "Point", "coordinates": [ 5.0733667, 51.5590956, 0.0 ] } },
{ "type": "Feature", "properties": { "Name": "De Wever, Behandelcentrum de Hazelaar", "description": null, "timestamp": null, "begin": null, "end": null, "altitudeMode": null, "tessellate": -1, "extrude": 0, "visibility": -1, "drawOrder": null, "icon": null, "Type": "Verpleeghuis en verzorgingshuis", "layer": "Z10", "path": "\/Users\/hiddodeboer\/Downloads\/Z10.kml" }, "geometry": { "type": "Point", "coordinates": [ 5.0621905, 51.5777713, 0.0 ] } },
{ "type": "Feature", "properties": { "Name": "De Wever, De Bijsterstede", "description": null, "timestamp": null, "begin": null, "end": null, "altitudeMode": null, "tessellate": -1, "extrude": 0, "visibility": -1, "drawOrder": null, "icon": null, "Type": "Verpleeghuis en verzorgingshuis", "layer": "Z10", "path": "\/Users\/hiddodeboer\/Downloads\/Z10.kml" }, "geometry": { "type": "Point", "coordinates": [ 5.0862966, 51.5640979, 0.0 ] } },
{ "type": "Feature", "properties": { "Name": "Woonlandschap de Leyhoeve, locatie Tilburg", "description": null, "timestamp": null, "begin": null, "end": null, "altitudeMode": null, "tessellate": -1, "extrude": 0, "visibility": -1, "drawOrder": null, "icon": null, "Type": "Particulier woonzorgcentrum", "layer": "Z10", "path": "\/Users\/hiddodeboer\/Downloads\/Z10.kml" }, "geometry": { "type": "Point", "coordinates": [ 5.1105423, 51.5450613, 0.0 ] } },
{ "type": "Feature", "properties": { "Name": "Kloosterverzorgingshuis Minderbroeders-Kapucijnen", "description": null, "timestamp": null, "begin": null, "end": null, "altitudeMode": null, "tessellate": -1, "extrude": 0, "visibility": -1, "drawOrder": null, "icon": null, "Type": "Verpleeghuis en verzorgingshuis", "layer": "Z10", "path": "\/Users\/hiddodeboer\/Downloads\/Z10.kml" }, "geometry": { "type": "Point", "coordinates": [ 5.0735062, 51.5517979, 0.0 ] } },
{ "type": "Feature", "properties": { "Name": "De Wever, Koningsvoorde", "description": null, "timestamp": null, "begin": null, "end": null, "altitudeMode": null, "tessellate": -1, "extrude": 0, "visibility": -1, "drawOrder": null, "icon": null, "Type": "Verpleeghuis en verzorgingshuis", "layer": "Z10", "path": "\/Users\/hiddodeboer\/Downloads\/Z10.kml" }, "geometry": { "type": "Point", "coordinates": [ 5.0795566, 51.544857, 0.0 ] } },
{ "type": "Feature", "properties": { "Name": "De Wever, De Vleugel", "description": null, "timestamp": null, "begin": null, "end": null, "altitudeMode": null, "tessellate": -1, "extrude": 0, "visibility": -1, "drawOrder": null, "icon": null, "Type": "Verpleeghuis en verzorgingshuis", "layer": "Z10", "path": "\/Users\/hiddodeboer\/Downloads\/Z10.kml" }, "geometry": { "type": "Point", "coordinates": [ 5.072338, 51.5478488, 0.0 ] } },
{ "type": "Feature", "properties": { "Name": "De Wever, De Kievitshorst", "description": null, "timestamp": null, "begin": null, "end": null, "altitudeMode": null, "tessellate": -1, "extrude": 0, "visibility": -1, "drawOrder": null, "icon": null, "Type": "Verpleeghuis en verzorgingshuis", "layer": "Z10", "path": "\/Users\/hiddodeboer\/Downloads\/Z10.kml" }, "geometry": { "type": "Point", "coordinates": [ 5.0476746, 51.5725227, 0.0 ] } },
{ "type": "Feature", "properties": { "Name": "Thebe Erasplaats", "description": null, "timestamp": null, "begin": null, "end": null, "altitudeMode": null, "tessellate": -1, "extrude": 0, "visibility": -1, "drawOrder": null, "icon": null, "Type": "Verpleeghuis en verzorgingshuis", "layer": "Z10", "path": "\/Users\/hiddodeboer\/Downloads\/Z10.kml" }, "geometry": { "type": "Point", "coordinates": [ 5.0805766, 51.5747615, 0.0 ] } },
{ "type": "Feature", "properties": { "Name": "Thebe Wijkverpleging Tilburg, Reeshof Oost", "description": null, "timestamp": null, "begin": null, "end": null, "altitudeMode": null, "tessellate": -1, "extrude": 0, "visibility": -1, "drawOrder": null, "icon": null, "Type": "Verpleeghuis en verzorgingshuis", "layer": "Z10", "path": "\/Users\/hiddodeboer\/Downloads\/Z10.kml" }, "geometry": { "type": "Point", "coordinates": [ 4.9986703, 51.5867145, 0.0 ] } },
{ "type": "Feature", "properties": { "Name": "Schakelring Zonnehof", "description": null, "timestamp": null, "begin": null, "end": null, "altitudeMode": null, "tessellate": -1, "extrude": 0, "visibility": -1, "drawOrder": null, "icon": null, "Type": "Verpleeghuis en verzorgingshuis", "layer": "Z10", "path": "\/Users\/hiddodeboer\/Downloads\/Z10.kml" }, "geometry": { "type": "Point", "coordinates": [ 5.0580516, 51.5587258, 0.0 ] } },
{ "type": "Feature", "properties": { "Name": "De Wever, Mater Misericordiae", "description": null, "timestamp": null, "begin": null, "end": null, "altitudeMode": null, "tessellate": -1, "extrude": 0, "visibility": -1, "drawOrder": null, "icon": null, "Type": "Verpleeghuis en verzorgingshuis", "layer": "Z10", "path": "\/Users\/hiddodeboer\/Downloads\/Z10.kml" }, "geometry": { "type": "Point", "coordinates": [ 5.081873, 51.5534382, 0.0 ] } },
{ "type": "Feature", "properties": { "Name": "De Wever, Satijnhof", "description": null, "timestamp": null, "begin": null, "end": null, "altitudeMode": null, "tessellate": -1, "extrude": 0, "visibility": -1, "drawOrder": null, "icon": null, "Type": "Verpleeghuis en verzorgingshuis", "layer": "Z10", "path": "\/Users\/hiddodeboer\/Downloads\/Z10.kml" }, "geometry": { "type": "Point", "coordinates": [ 5.1017837, 51.549093, 0.0 ] } },
{ "type": "Feature", "properties": { "Name": "De Wever, Joannes Zwijsen", "description": null, "timestamp": null, "begin": null, "end": null, "altitudeMode": null, "tessellate": -1, "extrude": 0, "visibility": -1, "drawOrder": null, "icon": null, "Type": "Verpleeghuis en verzorgingshuis", "layer": "Z10", "path": "\/Users\/hiddodeboer\/Downloads\/Z10.kml" }, "geometry": { "type": "Point", "coordinates": [ 5.077958, 51.561891, 0.0 ] } },
{ "type": "Feature", "properties": { "Name": "De Wever, Notre Dame", "description": null, "timestamp": null, "begin": null, "end": null, "altitudeMode": null, "tessellate": -1, "extrude": 0, "visibility": -1, "drawOrder": null, "icon": null, "Type": "Verpleeghuis en verzorgingshuis", "layer": "Z10", "path": "\/Users\/hiddodeboer\/Downloads\/Z10.kml" }, "geometry": { "type": "Point", "coordinates": [ 5.0612988, 51.5572927, 0.0 ] } },
{ "type": "Feature", "properties": { "Name": "Verzorgingshuis der Broeders Penitenten", "description": null, "timestamp": null, "begin": null, "end": null, "altitudeMode": null, "tessellate": -1, "extrude": 0, "visibility": -1, "drawOrder": null, "icon": null, "Type": "Verpleeghuis en verzorgingshuis", "layer": "Z10", "path": "\/Users\/hiddodeboer\/Downloads\/Z10.kml" }, "geometry": { "type": "Point", "coordinates": [ 5.0735062, 51.5517979, 0.0 ] } },
{ "type": "Feature", "properties": { "Name": "De Wever, De Heikant", "description": null, "timestamp": null, "begin": null, "end": null, "altitudeMode": null, "tessellate": -1, "extrude": 0, "visibility": -1, "drawOrder": null, "icon": null, "Type": "Verpleeghuis en verzorgingshuis", "layer": "Z10", "path": "\/Users\/hiddodeboer\/Downloads\/Z10.kml" }, "geometry": { "type": "Point", "coordinates": [ 5.087308, 51.5819732, 0.0 ] } },
{ "type": "Feature", "properties": { "Name": "Pleyade, locatie Lobede", "description": null, "timestamp": null, "begin": null, "end": null, "altitudeMode": null, "tessellate": -1, "extrude": 0, "visibility": -1, "drawOrder": null, "icon": null, "Type": "Verpleeghuis en verzorgingshuis", "layer": "Z10", "path": "\/Users\/hiddodeboer\/Downloads\/Z10.kml" }, "geometry": { "type": "Point", "coordinates": [ 6.1046758, 51.8514089, 0.0 ] } },
{ "type": "Feature", "properties": { "Name": "Liemerije, Dijkzicht", "description": null, "timestamp": null, "begin": null, "end": null, "altitudeMode": null, "tessellate": -1, "extrude": 0, "visibility": -1, "drawOrder": null, "icon": null, "Type": "Verpleeghuis en verzorgingshuis", "layer": "Z10", "path": "\/Users\/hiddodeboer\/Downloads\/Z10.kml" }, "geometry": { "type": "Point", "coordinates": [ 6.1046758, 51.8514089, 0.0 ] } },
{ "type": "Feature", "properties": { "Name": "TriviumMeulenbeltZorg (TMZ), Meulenbeltzorg", "description": null, "timestamp": null, "begin": null, "end": null, "altitudeMode": null, "tessellate": -1, "extrude": 0, "visibility": -1, "drawOrder": null, "icon": null, "Type": "Verpleeghuis en verzorgingshuis", "layer": "Z10", "path": "\/Users\/hiddodeboer\/Downloads\/Z10.kml" }, "geometry": { "type": "Point", "coordinates": [ 6.7802298, 52.4107586, 0.0 ] } },
{ "type": "Feature", "properties": { "Name": "Zorggroep Sint Maarten, Eeshof", "description": null, "timestamp": null, "begin": null, "end": null, "altitudeMode": null, "tessellate": -1, "extrude": 0, "visibility": -1, "drawOrder": null, "icon": null, "Type": "Verpleeghuis en verzorgingshuis", "layer": "Z10", "path": "\/Users\/hiddodeboer\/Downloads\/Z10.kml" }, "geometry": { "type": "Point", "coordinates": [ 6.7800136, 52.410896, 0.0 ] } },
{ "type": "Feature", "properties": { "Name": "Trimenzo, woonzorgcentrum de Martinushof", "description": null, "timestamp": null, "begin": null, "end": null, "altitudeMode": null, "tessellate": -1, "extrude": 0, "visibility": -1, "drawOrder": null, "icon": null, "Type": "Verpleeghuis en verzorgingshuis", "layer": "Z10", "path": "\/Users\/hiddodeboer\/Downloads\/Z10.kml" }, "geometry": { "type": "Point", "coordinates": [ 6.0934068, 52.2289264, 0.0 ] } },
{ "type": "Feature", "properties": { "Name": "Martha Flora Twello", "description": null, "timestamp": null, "begin": null, "end": null, "altitudeMode": null, "tessellate": -1, "extrude": 0, "visibility": -1, "drawOrder": null, "icon": null, "Type": "Particulier woonzorgcentrum", "layer": "Z10", "path": "\/Users\/hiddodeboer\/Downloads\/Z10.kml" }, "geometry": { "type": "Point", "coordinates": [ 6.083306, 52.2382171, 0.0 ] } },
{ "type": "Feature", "properties": { "Name": "September Twello", "description": null, "timestamp": null, "begin": null, "end": null, "altitudeMode": null, "tessellate": -1, "extrude": 0, "visibility": -1, "drawOrder": null, "icon": null, "Type": "Particulier woonzorgcentrum", "layer": "Z10", "path": "\/Users\/hiddodeboer\/Downloads\/Z10.kml" }, "geometry": { "type": "Point", "coordinates": [ 6.1099671, 52.2501816, 0.0 ] } },
{ "type": "Feature", "properties": { "Name": "Zorggroep Apeldoorn en omstreken, Verpleeghuis locatie Twello", "description": null, "timestamp": null, "begin": null, "end": null, "altitudeMode": null, "tessellate": -1, "extrude": 0, "visibility": -1, "drawOrder": null, "icon": null, "Type": "Verpleeghuis en verzorgingshuis", "layer": "Z10", "path": "\/Users\/hiddodeboer\/Downloads\/Z10.kml" }, "geometry": { "type": "Point", "coordinates": [ 6.0934068, 52.2289264, 0.0 ] } },
{ "type": "Feature", "properties": { "Name": "Trimenzo, woonzorgcentrum het Grotenhuis", "description": null, "timestamp": null, "begin": null, "end": null, "altitudeMode": null, "tessellate": -1, "extrude": 0, "visibility": -1, "drawOrder": null, "icon": null, "Type": "Verpleeghuis en verzorgingshuis", "layer": "Z10", "path": "\/Users\/hiddodeboer\/Downloads\/Z10.kml" }, "geometry": { "type": "Point", "coordinates": [ 6.1091226, 52.2394733, 0.0 ] } },
{ "type": "Feature", "properties": { "Name": "Trimenzo", "description": null, "timestamp": null, "begin": null, "end": null, "altitudeMode": null, "tessellate": -1, "extrude": 0, "visibility": -1, "drawOrder": null, "icon": null, "Type": "Organisatie", "layer": "Z10", "path": "\/Users\/hiddodeboer\/Downloads\/Z10.kml" }, "geometry": { "type": "Point", "coordinates": [ 6.0934068, 52.2289264, 0.0 ] } },
{ "type": "Feature", "properties": { "Name": "Patyna, locatie Martenahiem", "description": null, "timestamp": null, "begin": null, "end": null, "altitudeMode": null, "tessellate": -1, "extrude": 0, "visibility": -1, "drawOrder": null, "icon": null, "Type": "Verpleeghuis en verzorgingshuis", "layer": "Z10", "path": "\/Users\/hiddodeboer\/Downloads\/Z10.kml" }, "geometry": { "type": "Point", "coordinates": [ 5.5672536, 53.1560916, 0.0 ] } },
{ "type": "Feature", "properties": { "Name": "Dagelijks Leven, locatie Het Orgelhuis", "description": null, "timestamp": null, "begin": null, "end": null, "altitudeMode": null, "tessellate": -1, "extrude": 0, "visibility": -1, "drawOrder": null, "icon": null, "Type": "Particulier woonzorgcentrum", "layer": "Z10", "path": "\/Users\/hiddodeboer\/Downloads\/Z10.kml" }, "geometry": { "type": "Point", "coordinates": [ 5.6212587, 51.6736894, 0.0 ] } },
{ "type": "Feature", "properties": { "Name": "BrabantZorg, Zorghotel Udens Duyn", "description": null, "timestamp": null, "begin": null, "end": null, "altitudeMode": null, "tessellate": -1, "extrude": 0, "visibility": -1, "drawOrder": null, "icon": null, "Type": "Zorghotel", "layer": "Z10", "path": "\/Users\/hiddodeboer\/Downloads\/Z10.kml" }, "geometry": { "type": "Point", "coordinates": [ 5.6084323, 51.6744471, 0.0 ] } },
{ "type": "Feature", "properties": { "Name": "Laverhof, locatie Het Retraitehuis", "description": null, "timestamp": null, "begin": null, "end": null, "altitudeMode": null, "tessellate": -1, "extrude": 0, "visibility": -1, "drawOrder": null, "icon": null, "Type": "Verpleeghuis en verzorgingshuis", "layer": "Z10", "path": "\/Users\/hiddodeboer\/Downloads\/Z10.kml" }, "geometry": { "type": "Point", "coordinates": [ 5.6334979000001, 51.6540333, 0.0 ] } },
{ "type": "Feature", "properties": { "Name": "BrabantZorg, Sint Jan", "description": null, "timestamp": null, "begin": null, "end": null, "altitudeMode": null, "tessellate": -1, "extrude": 0, "visibility": -1, "drawOrder": null, "icon": null, "Type": "Verpleeghuis en verzorgingshuis", "layer": "Z10", "path": "\/Users\/hiddodeboer\/Downloads\/Z10.kml" }, "geometry": { "type": "Point", "coordinates": [ 5.6109108000001, 51.6597325, 0.0 ] } },
{ "type": "Feature", "properties": { "Name": "BrabantZorg Udens Duyn, Geriatrische Revalidatiezorg", "description": null, "timestamp": null, "begin": null, "end": null, "altitudeMode": null, "tessellate": -1, "extrude": 0, "visibility": -1, "drawOrder": null, "icon": null, "Type": "Verpleeghuis en verzorgingshuis", "layer": "Z10", "path": "\/Users\/hiddodeboer\/Downloads\/Z10.kml" }, "geometry": { "type": "Point", "coordinates": [ 5.6084323, 51.6744471, 0.0 ] } },
{ "type": "Feature", "properties": { "Name": "BrabantZorg, MuzeRijk", "description": null, "timestamp": null, "begin": null, "end": null, "altitudeMode": null, "tessellate": -1, "extrude": 0, "visibility": -1, "drawOrder": null, "icon": null, "Type": "Verpleeghuis en verzorgingshuis", "layer": "Z10", "path": "\/Users\/hiddodeboer\/Downloads\/Z10.kml" }, "geometry": { "type": "Point", "coordinates": [ 5.6173553, 51.6708388, 0.0 ] } },
{ "type": "Feature", "properties": { "Name": "t Heem", "description": null, "timestamp": null, "begin": null, "end": null, "altitudeMode": null, "tessellate": -1, "extrude": 0, "visibility": -1, "drawOrder": null, "icon": null, "Type": "Organisatie", "layer": "Z10", "path": "\/Users\/hiddodeboer\/Downloads\/Z10.kml" }, "geometry": { "type": "Point", "coordinates": [ 5.1404269, 51.6118855, 0.0 ] } },
{ "type": "Feature", "properties": { "Name": "t Heem, Zorglocatie de Eikelaar", "description": null, "timestamp": null, "begin": null, "end": null, "altitudeMode": null, "tessellate": -1, "extrude": 0, "visibility": -1, "drawOrder": null, "icon": null, "Type": "Verpleeghuis en verzorgingshuis", "layer": "Z10", "path": "\/Users\/hiddodeboer\/Downloads\/Z10.kml" }, "geometry": { "type": "Point", "coordinates": [ 5.1384542000001, 51.6102974, 0.0 ] } },
{ "type": "Feature", "properties": { "Name": "Atlant, locatie Sprengenhof", "description": null, "timestamp": null, "begin": null, "end": null, "altitudeMode": null, "tessellate": -1, "extrude": 0, "visibility": -1, "drawOrder": null, "icon": null, "Type": "Verpleeghuis en verzorgingshuis", "layer": "Z10", "path": "\/Users\/hiddodeboer\/Downloads\/Z10.kml" }, "geometry": { "type": "Point", "coordinates": [ 5.9380893, 52.1866369, 0.0 ] } },
{ "type": "Feature", "properties": { "Name": "Nusantara", "description": null, "timestamp": null, "begin": null, "end": null, "altitudeMode": null, "tessellate": -1, "extrude": 0, "visibility": -1, "drawOrder": null, "icon": null, "Type": "Organisatie", "layer": "Z10", "path": "\/Users\/hiddodeboer\/Downloads\/Z10.kml" }, "geometry": { "type": "Point", "coordinates": [ 5.9459229, 52.1892883, 0.0 ] } },
{ "type": "Feature", "properties": { "Name": "Nusantara, locatie Rumah Saya", "description": null, "timestamp": null, "begin": null, "end": null, "altitudeMode": null, "tessellate": -1, "extrude": 0, "visibility": -1, "drawOrder": null, "icon": null, "Type": "Verpleeghuis en verzorgingshuis", "layer": "Z10", "path": "\/Users\/hiddodeboer\/Downloads\/Z10.kml" }, "geometry": { "type": "Point", "coordinates": [ 5.9459229, 52.1892883, 0.0 ] } },
{ "type": "Feature", "properties": { "Name": "ViVa! Zorggroep, locatie Geesterheem", "description": null, "timestamp": null, "begin": null, "end": null, "altitudeMode": null, "tessellate": -1, "extrude": 0, "visibility": -1, "drawOrder": null, "icon": null, "Type": "Verpleeghuis en verzorgingshuis", "layer": "Z10", "path": "\/Users\/hiddodeboer\/Downloads\/Z10.kml" }, "geometry": { "type": "Point", "coordinates": [ 4.7120694, 52.5285398, 0.0 ] } },
{ "type": "Feature", "properties": { "Name": "Amstelring, Woonzorgcentrum Het Hoge Heem", "description": null, "timestamp": null, "begin": null, "end": null, "altitudeMode": null, "tessellate": -1, "extrude": 0, "visibility": -1, "drawOrder": null, "icon": null, "Type": "Verpleeghuis en verzorgingshuis", "layer": "Z10", "path": "\/Users\/hiddodeboer\/Downloads\/Z10.kml" }, "geometry": { "type": "Point", "coordinates": [ 4.8282488, 52.2449464, 0.0 ] } },
{ "type": "Feature", "properties": { "Name": "Verpleegkundig Kinderzorghuis de Biezenwaard", "description": null, "timestamp": null, "begin": null, "end": null, "altitudeMode": null, "tessellate": -1, "extrude": 0, "visibility": -1, "drawOrder": null, "icon": null, "Type": "Hospice", "layer": "Z10", "path": "\/Users\/hiddodeboer\/Downloads\/Z10.kml" }, "geometry": { "type": "Point", "coordinates": [ 4.8376536000001, 52.2431416, 0.0 ] } },
{ "type": "Feature", "properties": { "Name": "Thuishuis de Ommejas", "description": null, "timestamp": null, "begin": null, "end": null, "altitudeMode": null, "tessellate": -1, "extrude": 0, "visibility": -1, "drawOrder": null, "icon": null, "Type": "Hospice", "layer": "Z10", "path": "\/Users\/hiddodeboer\/Downloads\/Z10.kml" }, "geometry": { "type": "Point", "coordinates": [ 6.6545177, 53.4092057, 0.0 ] } },
{ "type": "Feature", "properties": { "Name": "t Gerack", "description": null, "timestamp": null, "begin": null, "end": null, "altitudeMode": null, "tessellate": -1, "extrude": 0, "visibility": -1, "drawOrder": null, "icon": null, "Type": "Organisatie", "layer": "Z10", "path": "\/Users\/hiddodeboer\/Downloads\/Z10.kml" }, "geometry": { "type": "Point", "coordinates": [ 6.6768193, 53.4098153, 0.0 ] } },
{ "type": "Feature", "properties": { "Name": "t Gerack, De Mieden", "description": null, "timestamp": null, "begin": null, "end": null, "altitudeMode": null, "tessellate": -1, "extrude": 0, "visibility": -1, "drawOrder": null, "icon": null, "Type": "Verpleeghuis en verzorgingshuis", "layer": "Z10", "path": "\/Users\/hiddodeboer\/Downloads\/Z10.kml" }, "geometry": { "type": "Point", "coordinates": [ 6.7179273, 53.412043, 0.0 ] } },
{ "type": "Feature", "properties": { "Name": "Azora, Zorgcentrum en verpleeghuis Debbeshoek", "description": null, "timestamp": null, "begin": null, "end": null, "altitudeMode": null, "tessellate": -1, "extrude": 0, "visibility": -1, "drawOrder": null, "icon": null, "Type": "Verpleeghuis en verzorgingshuis", "layer": "Z10", "path": "\/Users\/hiddodeboer\/Downloads\/Z10.kml" }, "geometry": { "type": "Point", "coordinates": [ 6.376559, 51.892203, 0.0 ] } },
{ "type": "Feature", "properties": { "Name": "Surplus, woonzorgcentrum De Donk", "description": null, "timestamp": null, "begin": null, "end": null, "altitudeMode": null, "tessellate": -1, "extrude": 0, "visibility": -1, "drawOrder": null, "icon": null, "Type": "Verpleeghuis en verzorgingshuis", "layer": "Z10", "path": "\/Users\/hiddodeboer\/Downloads\/Z10.kml" }, "geometry": { "type": "Point", "coordinates": [ 4.7950786, 51.5516182, 0.0 ] } },
{ "type": "Feature", "properties": { "Name": "ZuidOostZorg, locatie De Lijte", "description": null, "timestamp": null, "begin": null, "end": null, "altitudeMode": null, "tessellate": -1, "extrude": 0, "visibility": -1, "drawOrder": null, "icon": null, "Type": "Verpleeghuis en verzorgingshuis", "layer": "Z10", "path": "\/Users\/hiddodeboer\/Downloads\/Z10.kml" }, "geometry": { "type": "Point", "coordinates": [ 6.1725894, 53.0938953, 0.0 ] } },
{ "type": "Feature", "properties": { "Name": "ZuidOostZorg, locatie Lijtehiem", "description": null, "timestamp": null, "begin": null, "end": null, "altitudeMode": null, "tessellate": -1, "extrude": 0, "visibility": -1, "drawOrder": null, "icon": null, "Type": "Verpleeghuis en verzorgingshuis", "layer": "Z10", "path": "\/Users\/hiddodeboer\/Downloads\/Z10.kml" }, "geometry": { "type": "Point", "coordinates": [ 6.1730417, 53.0933172, 0.0 ] } },
{ "type": "Feature", "properties": { "Name": "Zorggroep Oude en Nieuwe Land, Verpleeghuis 't Kompas", "description": null, "timestamp": null, "begin": null, "end": null, "altitudeMode": null, "tessellate": -1, "extrude": 0, "visibility": -1, "drawOrder": null, "icon": null, "Type": "Verpleeghuis en verzorgingshuis", "layer": "Z10", "path": "\/Users\/hiddodeboer\/Downloads\/Z10.kml" }, "geometry": { "type": "Point", "coordinates": [ 5.6222026, 52.6635562, 0.0 ] } },
{ "type": "Feature", "properties": { "Name": "Talma Urk", "description": null, "timestamp": null, "begin": null, "end": null, "altitudeMode": null, "tessellate": -1, "extrude": 0, "visibility": -1, "drawOrder": null, "icon": null, "Type": "Organisatie", "layer": "Z10", "path": "\/Users\/hiddodeboer\/Downloads\/Z10.kml" }, "geometry": { "type": "Point", "coordinates": [ 5.6222026, 52.6635562, 0.0 ] } },
{ "type": "Feature", "properties": { "Name": "Talma Haven", "description": null, "timestamp": null, "begin": null, "end": null, "altitudeMode": null, "tessellate": -1, "extrude": 0, "visibility": -1, "drawOrder": null, "icon": null, "Type": "Verpleeghuis en verzorgingshuis", "layer": "Z10", "path": "\/Users\/hiddodeboer\/Downloads\/Z10.kml" }, "geometry": { "type": "Point", "coordinates": [ 5.6222026, 52.6635562, 0.0 ] } },
{ "type": "Feature", "properties": { "Name": "Talma Het Dok", "description": null, "timestamp": null, "begin": null, "end": null, "altitudeMode": null, "tessellate": -1, "extrude": 0, "visibility": -1, "drawOrder": null, "icon": null, "Type": "Verpleeghuis en verzorgingshuis", "layer": "Z10", "path": "\/Users\/hiddodeboer\/Downloads\/Z10.kml" }, "geometry": { "type": "Point", "coordinates": [ 5.6286301, 52.6639238, 0.0 ] } },
{ "type": "Feature", "properties": { "Name": "Vivantes, woonzorgcentrum Urmonderhof", "description": null, "timestamp": null, "begin": null, "end": null, "altitudeMode": null, "tessellate": -1, "extrude": 0, "visibility": -1, "drawOrder": null, "icon": null, "Type": "Verpleeghuis en verzorgingshuis", "layer": "Z10", "path": "\/Users\/hiddodeboer\/Downloads\/Z10.kml" }, "geometry": { "type": "Point", "coordinates": [ 5.7709973, 50.9913866, 0.0 ] } },
{ "type": "Feature", "properties": { "Name": "Wilgaerden, locatie De Rustenburcht", "description": null, "timestamp": null, "begin": null, "end": null, "altitudeMode": null, "tessellate": -1, "extrude": 0, "visibility": -1, "drawOrder": null, "icon": null, "Type": "Verpleeghuis en verzorgingshuis", "layer": "Z10", "path": "\/Users\/hiddodeboer\/Downloads\/Z10.kml" }, "geometry": { "type": "Point", "coordinates": [ 4.8905786, 52.6271843, 0.0 ] } },
{ "type": "Feature", "properties": { "Name": "AxionContinu, woonzorgcentrum De Bijnkershoek", "description": null, "timestamp": null, "begin": null, "end": null, "altitudeMode": null, "tessellate": -1, "extrude": 0, "visibility": -1, "drawOrder": null, "icon": null, "Type": "Verpleeghuis en verzorgingshuis", "layer": "Z10", "path": "\/Users\/hiddodeboer\/Downloads\/Z10.kml" }, "geometry": { "type": "Point", "coordinates": [ 5.0979192, 52.0786085, 0.0 ] } },
{ "type": "Feature", "properties": { "Name": "Careyn De Prinses", "description": null, "timestamp": null, "begin": null, "end": null, "altitudeMode": null, "tessellate": -1, "extrude": 0, "visibility": -1, "drawOrder": null, "icon": null, "Type": "Verpleeghuis en verzorgingshuis", "layer": "Z10", "path": "\/Users\/hiddodeboer\/Downloads\/Z10.kml" }, "geometry": { "type": "Point", "coordinates": [ 5.0900775, 52.11242, 0.0 ] } },
{ "type": "Feature", "properties": { "Name": "Leger des Heils Midden Nederland, MeerZorg", "description": null, "timestamp": null, "begin": null, "end": null, "altitudeMode": null, "tessellate": -1, "extrude": 0, "visibility": -1, "drawOrder": null, "icon": null, "Type": "Verpleeghuis en verzorgingshuis", "layer": "Z10", "path": "\/Users\/hiddodeboer\/Downloads\/Z10.kml" }, "geometry": { "type": "Point", "coordinates": [ 5.1266983, 52.0865006, 0.0 ] } },
{ "type": "Feature", "properties": { "Name": "Careyn Tuindorp Oost", "description": null, "timestamp": null, "begin": null, "end": null, "altitudeMode": null, "tessellate": -1, "extrude": 0, "visibility": -1, "drawOrder": null, "icon": null, "Type": "Verpleeghuis en verzorgingshuis", "layer": "Z10", "path": "\/Users\/hiddodeboer\/Downloads\/Z10.kml" }, "geometry": { "type": "Point", "coordinates": [ 5.1384143, 52.1097006, 0.0 ] } },
{ "type": "Feature", "properties": { "Name": "Careyn Warande", "description": null, "timestamp": null, "begin": null, "end": null, "altitudeMode": null, "tessellate": -1, "extrude": 0, "visibility": -1, "drawOrder": null, "icon": null, "Type": "Verpleeghuis en verzorgingshuis", "layer": "Z10", "path": "\/Users\/hiddodeboer\/Downloads\/Z10.kml" }, "geometry": { "type": "Point", "coordinates": [ 5.122547, 52.1152099, 0.0 ] } },
{ "type": "Feature", "properties": { "Name": "ECR", "description": null, "timestamp": null, "begin": null, "end": null, "altitudeMode": null, "tessellate": -1, "extrude": 0, "visibility": -1, "drawOrder": null, "icon": null, "Type": "Organisatie", "layer": "Z10", "path": "\/Users\/hiddodeboer\/Downloads\/Z10.kml" }, "geometry": { "type": "Point", "coordinates": [ 5.0966828000001, 52.0754505, 0.0 ] } },
{ "type": "Feature", "properties": { "Name": "Careyn Rosendael", "description": null, "timestamp": null, "begin": null, "end": null, "altitudeMode": null, "tessellate": -1, "extrude": 0, "visibility": -1, "drawOrder": null, "icon": null, "Type": "Verpleeghuis en verzorgingshuis", "layer": "Z10", "path": "\/Users\/hiddodeboer\/Downloads\/Z10.kml" }, "geometry": { "type": "Point", "coordinates": [ 5.1021951, 52.1237838, 0.0 ] } },
{ "type": "Feature", "properties": { "Name": "Careyn De Geuzenveste", "description": null, "timestamp": null, "begin": null, "end": null, "altitudeMode": null, "tessellate": -1, "extrude": 0, "visibility": -1, "drawOrder": null, "icon": null, "Type": "Verpleeghuis en verzorgingshuis", "layer": "Z10", "path": "\/Users\/hiddodeboer\/Downloads\/Z10.kml" }, "geometry": { "type": "Point", "coordinates": [ 5.0977557, 52.1090443, 0.0 ] } },
{ "type": "Feature", "properties": { "Name": "AxionContinu, woonzorgcentrum De Drie Ringen", "description": null, "timestamp": null, "begin": null, "end": null, "altitudeMode": null, "tessellate": -1, "extrude": 0, "visibility": -1, "drawOrder": null, "icon": null, "Type": "Verpleeghuis en verzorgingshuis", "layer": "Z10", "path": "\/Users\/hiddodeboer\/Downloads\/Z10.kml" }, "geometry": { "type": "Point", "coordinates": [ 5.0347014, 52.0993934, 0.0 ] } },
{ "type": "Feature", "properties": { "Name": "ECR De Keizershof", "description": null, "timestamp": null, "begin": null, "end": null, "altitudeMode": null, "tessellate": -1, "extrude": 0, "visibility": -1, "drawOrder": null, "icon": null, "Type": "Particulier woonzorgcentrum", "layer": "Z10", "path": "\/Users\/hiddodeboer\/Downloads\/Z10.kml" }, "geometry": { "type": "Point", "coordinates": [ 5.0966828000001, 52.0754505, 0.0 ] } },
{ "type": "Feature", "properties": { "Name": "Stichting Hospice Utrecht", "description": null, "timestamp": null, "begin": null, "end": null, "altitudeMode": null, "tessellate": -1, "extrude": 0, "visibility": -1, "drawOrder": null, "icon": null, "Type": "Hospice", "layer": "Z10", "path": "\/Users\/hiddodeboer\/Downloads\/Z10.kml" }, "geometry": { "type": "Point", "coordinates": [ 5.0959997, 52.0907735, 0.0 ] } },
{ "type": "Feature", "properties": { "Name": "Vecht en IJssel", "description": null, "timestamp": null, "begin": null, "end": null, "altitudeMode": null, "tessellate": -1, "extrude": 0, "visibility": -1, "drawOrder": null, "icon": null, "Type": "Organisatie", "layer": "Z10", "path": "\/Users\/hiddodeboer\/Downloads\/Z10.kml" }, "geometry": { "type": "Point", "coordinates": [ 5.1008297, 52.0740701, 0.0 ] } },
{ "type": "Feature", "properties": { "Name": "Vecht en IJssel, locatie Lieven de Key", "description": null, "timestamp": null, "begin": null, "end": null, "altitudeMode": null, "tessellate": -1, "extrude": 0, "visibility": -1, "drawOrder": null, "icon": null, "Type": "Verpleeghuis en verzorgingshuis", "layer": "Z10", "path": "\/Users\/hiddodeboer\/Downloads\/Z10.kml" }, "geometry": { "type": "Point", "coordinates": [ 5.0750879, 52.11627, 0.0 ] } },
{ "type": "Feature", "properties": { "Name": "Careyn Tamarinde, Geriatrische revalidatie", "description": null, "timestamp": null, "begin": null, "end": null, "altitudeMode": null, "tessellate": -1, "extrude": 0, "visibility": -1, "drawOrder": null, "icon": null, "Type": "Verpleeghuis en verzorgingshuis", "layer": "Z10", "path": "\/Users\/hiddodeboer\/Downloads\/Z10.kml" }, "geometry": { "type": "Point", "coordinates": [ 5.1226625, 52.1147715, 0.0 ] } },
{ "type": "Feature", "properties": { "Name": "AxionContinu, Zorghotel Domstate", "description": null, "timestamp": null, "begin": null, "end": null, "altitudeMode": null, "tessellate": -1, "extrude": 0, "visibility": -1, "drawOrder": null, "icon": null, "Type": "Zorghotel", "layer": "Z10", "path": "\/Users\/hiddodeboer\/Downloads\/Z10.kml" }, "geometry": { "type": "Point", "coordinates": [ 5.1041568000001, 52.0679461, 0.0 ] } },
{ "type": "Feature", "properties": { "Name": "AxionContinu, woonzorgcentrum Koningsbruggen", "description": null, "timestamp": null, "begin": null, "end": null, "altitudeMode": null, "tessellate": -1, "extrude": 0, "visibility": -1, "drawOrder": null, "icon": null, "Type": "Verpleeghuis en verzorgingshuis", "layer": "Z10", "path": "\/Users\/hiddodeboer\/Downloads\/Z10.kml" }, "geometry": { "type": "Point", "coordinates": [ 5.1041997, 52.067766, 0.0 ] } },
{ "type": "Feature", "properties": { "Name": "Vecht en IJssel, locatie Transwijk", "description": null, "timestamp": null, "begin": null, "end": null, "altitudeMode": null, "tessellate": -1, "extrude": 0, "visibility": -1, "drawOrder": null, "icon": null, "Type": "Verpleeghuis en verzorgingshuis", "layer": "Z10", "path": "\/Users\/hiddodeboer\/Downloads\/Z10.kml" }, "geometry": { "type": "Point", "coordinates": [ 5.1008297, 52.0740701, 0.0 ] } },
{ "type": "Feature", "properties": { "Name": "AxionContinu, Zorghotel De Wartburg", "description": null, "timestamp": null, "begin": null, "end": null, "altitudeMode": null, "tessellate": -1, "extrude": 0, "visibility": -1, "drawOrder": null, "icon": null, "Type": "Zorghotel", "layer": "Z10", "path": "\/Users\/hiddodeboer\/Downloads\/Z10.kml" }, "geometry": { "type": "Point", "coordinates": [ 5.0859401, 52.080816, 0.0 ] } },
{ "type": "Feature", "properties": { "Name": "Bartholomeus Gasthuis", "description": null, "timestamp": null, "begin": null, "end": null, "altitudeMode": null, "tessellate": -1, "extrude": 0, "visibility": -1, "drawOrder": null, "icon": null, "Type": "Verpleeghuis en verzorgingshuis", "layer": "Z10", "path": "\/Users\/hiddodeboer\/Downloads\/Z10.kml" }, "geometry": { "type": "Point", "coordinates": [ 5.1197236, 52.085454, 0.0 ] } },
{ "type": "Feature", "properties": { "Name": "AxionContinu, woonzorgcentrum De Wartburg", "description": null, "timestamp": null, "begin": null, "end": null, "altitudeMode": null, "tessellate": -1, "extrude": 0, "visibility": -1, "drawOrder": null, "icon": null, "Type": "Verpleeghuis en verzorgingshuis", "layer": "Z10", "path": "\/Users\/hiddodeboer\/Downloads\/Z10.kml" }, "geometry": { "type": "Point", "coordinates": [ 5.0858539, 52.0805955, 0.0 ] } },
{ "type": "Feature", "properties": { "Name": "AxionContinu, woonzorgcentrum Voorhoeve", "description": null, "timestamp": null, "begin": null, "end": null, "altitudeMode": null, "tessellate": -1, "extrude": 0, "visibility": -1, "drawOrder": null, "icon": null, "Type": "Verpleeghuis en verzorgingshuis", "layer": "Z10", "path": "\/Users\/hiddodeboer\/Downloads\/Z10.kml" }, "geometry": { "type": "Point", "coordinates": [ 5.0890137, 52.0799536, 0.0 ] } },
{ "type": "Feature", "properties": { "Name": "Careyn Parkwijk", "description": null, "timestamp": null, "begin": null, "end": null, "altitudeMode": null, "tessellate": -1, "extrude": 0, "visibility": -1, "drawOrder": null, "icon": null, "Type": "Verpleeghuis en verzorgingshuis", "layer": "Z10", "path": "\/Users\/hiddodeboer\/Downloads\/Z10.kml" }, "geometry": { "type": "Point", "coordinates": [ 5.053074, 52.0884127, 0.0 ] } },
{ "type": "Feature", "properties": { "Name": "Careyn Nieuw Chartreuse", "description": null, "timestamp": null, "begin": null, "end": null, "altitudeMode": null, "tessellate": -1, "extrude": 0, "visibility": -1, "drawOrder": null, "icon": null, "Type": "Verpleeghuis en verzorgingshuis", "layer": "Z10", "path": "\/Users\/hiddodeboer\/Downloads\/Z10.kml" }, "geometry": { "type": "Point", "coordinates": [ 5.1037825, 52.1060183, 0.0 ] } },
{ "type": "Feature", "properties": { "Name": "Vecht en IJssel, locatie Zuylenstede", "description": null, "timestamp": null, "begin": null, "end": null, "altitudeMode": null, "tessellate": -1, "extrude": 0, "visibility": -1, "drawOrder": null, "icon": null, "Type": "Verpleeghuis en verzorgingshuis", "layer": "Z10", "path": "\/Users\/hiddodeboer\/Downloads\/Z10.kml" }, "geometry": { "type": "Point", "coordinates": [ 5.0969228, 52.1171468, 0.0 ] } },
{ "type": "Feature", "properties": { "Name": "AxionContinu, woonzorgcentrum 't Huis aan de Vecht", "description": null, "timestamp": null, "begin": null, "end": null, "altitudeMode": null, "tessellate": -1, "extrude": 0, "visibility": -1, "drawOrder": null, "icon": null, "Type": "Verpleeghuis en verzorgingshuis", "layer": "Z10", "path": "\/Users\/hiddodeboer\/Downloads\/Z10.kml" }, "geometry": { "type": "Point", "coordinates": [ 5.0938463, 52.1193028, 0.0 ] } },
{ "type": "Feature", "properties": { "Name": "Careyn Tamarinde, Verpleging", "description": null, "timestamp": null, "begin": null, "end": null, "altitudeMode": null, "tessellate": -1, "extrude": 0, "visibility": -1, "drawOrder": null, "icon": null, "Type": "Verpleeghuis en verzorgingshuis", "layer": "Z10", "path": "\/Users\/hiddodeboer\/Downloads\/Z10.kml" }, "geometry": { "type": "Point", "coordinates": [ 5.1226625, 52.1147715, 0.0 ] } },
{ "type": "Feature", "properties": { "Name": "AxionContinu, woonzorgcentrum De Componist", "description": null, "timestamp": null, "begin": null, "end": null, "altitudeMode": null, "tessellate": -1, "extrude": 0, "visibility": -1, "drawOrder": null, "icon": null, "Type": "Verpleeghuis en verzorgingshuis", "layer": "Z10", "path": "\/Users\/hiddodeboer\/Downloads\/Z10.kml" }, "geometry": { "type": "Point", "coordinates": [ 5.0394717, 52.1020262, 0.0 ] } },
{ "type": "Feature", "properties": { "Name": "AxionContinu, woonzorgcentrum Voorveldse Hof", "description": null, "timestamp": null, "begin": null, "end": null, "altitudeMode": null, "tessellate": -1, "extrude": 0, "visibility": -1, "drawOrder": null, "icon": null, "Type": "Verpleeghuis en verzorgingshuis", "layer": "Z10", "path": "\/Users\/hiddodeboer\/Downloads\/Z10.kml" }, "geometry": { "type": "Point", "coordinates": [ 5.1448816, 52.1030467, 0.0 ] } },
{ "type": "Feature", "properties": { "Name": "AxionContinu", "description": null, "timestamp": null, "begin": null, "end": null, "altitudeMode": null, "tessellate": -1, "extrude": 0, "visibility": -1, "drawOrder": null, "icon": null, "Type": "Organisatie", "layer": "Z10", "path": "\/Users\/hiddodeboer\/Downloads\/Z10.kml" }, "geometry": { "type": "Point", "coordinates": [ 5.1036085000001, 52.0684456, 0.0 ] } },
{ "type": "Feature", "properties": { "Name": "AxionContinu, woonzorgcentrum Ingelanden", "description": null, "timestamp": null, "begin": null, "end": null, "altitudeMode": null, "tessellate": -1, "extrude": 0, "visibility": -1, "drawOrder": null, "icon": null, "Type": "Verpleeghuis en verzorgingshuis", "layer": "Z10", "path": "\/Users\/hiddodeboer\/Downloads\/Z10.kml" }, "geometry": { "type": "Point", "coordinates": [ 5.0601385, 52.1002978, 0.0 ] } },
{ "type": "Feature", "properties": { "Name": "Careyn Swellengrebel", "description": null, "timestamp": null, "begin": null, "end": null, "altitudeMode": null, "tessellate": -1, "extrude": 0, "visibility": -1, "drawOrder": null, "icon": null, "Type": "Verpleeghuis en verzorgingshuis", "layer": "Z10", "path": "\/Users\/hiddodeboer\/Downloads\/Z10.kml" }, "geometry": { "type": "Point", "coordinates": [ 5.1381402, 52.0802731, 0.0 ] } },
{ "type": "Feature", "properties": { "Name": "AxionContinu, De Parkgraaf, Centrum voor Revalidatie en Herstel", "description": null, "timestamp": null, "begin": null, "end": null, "altitudeMode": null, "tessellate": -1, "extrude": 0, "visibility": -1, "drawOrder": null, "icon": null, "Type": "Verpleeghuis en verzorgingshuis", "layer": "Z10", "path": "\/Users\/hiddodeboer\/Downloads\/Z10.kml" }, "geometry": { "type": "Point", "coordinates": [ 5.1046195, 52.0678048, 0.0 ] } },
{ "type": "Feature", "properties": { "Name": "Sevagram, Zorgcentrum Langedael", "description": null, "timestamp": null, "begin": null, "end": null, "altitudeMode": null, "tessellate": -1, "extrude": 0, "visibility": -1, "drawOrder": null, "icon": null, "Type": "Verpleeghuis en verzorgingshuis", "layer": "Z10", "path": "\/Users\/hiddodeboer\/Downloads\/Z10.kml" }, "geometry": { "type": "Point", "coordinates": [ 6.0144478, 50.7718841, 0.0 ] } },
{ "type": "Feature", "properties": { "Name": "Viattence, locatie De Speulbrink", "description": null, "timestamp": null, "begin": null, "end": null, "altitudeMode": null, "tessellate": -1, "extrude": 0, "visibility": -1, "drawOrder": null, "icon": null, "Type": "Verpleeghuis en verzorgingshuis", "layer": "Z10", "path": "\/Users\/hiddodeboer\/Downloads\/Z10.kml" }, "geometry": { "type": "Point", "coordinates": [ 5.9661733, 52.2880137, 0.0 ] } },
{ "type": "Feature", "properties": { "Name": "ECR Domaine Cauberg", "description": null, "timestamp": null, "begin": null, "end": null, "altitudeMode": null, "tessellate": -1, "extrude": 0, "visibility": -1, "drawOrder": null, "icon": null, "Type": "Particulier woonzorgcentrum", "layer": "Z10", "path": "\/Users\/hiddodeboer\/Downloads\/Z10.kml" }, "geometry": { "type": "Point", "coordinates": [ 5.8278993, 50.8618069, 0.0 ] } },
{ "type": "Feature", "properties": { "Name": "Sevagram, Zorgcentrum Valkenheim", "description": null, "timestamp": null, "begin": null, "end": null, "altitudeMode": null, "tessellate": -1, "extrude": 0, "visibility": -1, "drawOrder": null, "icon": null, "Type": "Verpleeghuis en verzorgingshuis", "layer": "Z10", "path": "\/Users\/hiddodeboer\/Downloads\/Z10.kml" }, "geometry": { "type": "Point", "coordinates": [ 5.8368366, 50.8651074, 0.0 ] } },
{ "type": "Feature", "properties": { "Name": "Sevagram, Geerlings Hospice", "description": null, "timestamp": null, "begin": null, "end": null, "altitudeMode": null, "tessellate": -1, "extrude": 0, "visibility": -1, "drawOrder": null, "icon": null, "Type": "Hospice", "layer": "Z10", "path": "\/Users\/hiddodeboer\/Downloads\/Z10.kml" }, "geometry": { "type": "Point", "coordinates": [ 5.8387989, 50.8600704, 0.0 ] } },
{ "type": "Feature", "properties": { "Name": "Sevagram, Zorgcentrum Oosterbeemd", "description": null, "timestamp": null, "begin": null, "end": null, "altitudeMode": null, "tessellate": -1, "extrude": 0, "visibility": -1, "drawOrder": null, "icon": null, "Type": "Verpleeghuis en verzorgingshuis", "layer": "Z10", "path": "\/Users\/hiddodeboer\/Downloads\/Z10.kml" }, "geometry": { "type": "Point", "coordinates": [ 5.8373729, 50.8603771, 0.0 ] } },
{ "type": "Feature", "properties": { "Name": "Valkenhof, zorgcentrum Taxandria", "description": null, "timestamp": null, "begin": null, "end": null, "altitudeMode": null, "tessellate": -1, "extrude": 0, "visibility": -1, "drawOrder": null, "icon": null, "Type": "Verpleeghuis en verzorgingshuis", "layer": "Z10", "path": "\/Users\/hiddodeboer\/Downloads\/Z10.kml" }, "geometry": { "type": "Point", "coordinates": [ 5.4718767, 51.3499967, 0.0 ] } },
{ "type": "Feature", "properties": { "Name": "Valkenhof, zorgcentrum Kempenhof", "description": null, "timestamp": null, "begin": null, "end": null, "altitudeMode": null, "tessellate": -1, "extrude": 0, "visibility": -1, "drawOrder": null, "icon": null, "Type": "Verpleeghuis en verzorgingshuis", "layer": "Z10", "path": "\/Users\/hiddodeboer\/Downloads\/Z10.kml" }, "geometry": { "type": "Point", "coordinates": [ 5.4553738, 51.3472253, 0.0 ] } },
{ "type": "Feature", "properties": { "Name": "Valkenhof, Geriatrische revalidatiezorg", "description": null, "timestamp": null, "begin": null, "end": null, "altitudeMode": null, "tessellate": -1, "extrude": 0, "visibility": -1, "drawOrder": null, "icon": null, "Type": "Verpleeghuis en verzorgingshuis", "layer": "Z10", "path": "\/Users\/hiddodeboer\/Downloads\/Z10.kml" }, "geometry": { "type": "Point", "coordinates": [ 5.4553738, 51.3472253, 0.0 ] } },
{ "type": "Feature", "properties": { "Name": "Valkenhof, zorgcentrum De Bogen", "description": null, "timestamp": null, "begin": null, "end": null, "altitudeMode": null, "tessellate": -1, "extrude": 0, "visibility": -1, "drawOrder": null, "icon": null, "Type": "Verpleeghuis en verzorgingshuis", "layer": "Z10", "path": "\/Users\/hiddodeboer\/Downloads\/Z10.kml" }, "geometry": { "type": "Point", "coordinates": [ 5.4582903, 51.3546078, 0.0 ] } },
{ "type": "Feature", "properties": { "Name": "Valkenhof, Den Haagacker", "description": null, "timestamp": null, "begin": null, "end": null, "altitudeMode": null, "tessellate": -1, "extrude": 0, "visibility": -1, "drawOrder": null, "icon": null, "Type": "Verpleeghuis en verzorgingshuis", "layer": "Z10", "path": "\/Users\/hiddodeboer\/Downloads\/Z10.kml" }, "geometry": { "type": "Point", "coordinates": [ 5.4587936, 51.3551111, 0.0 ] } },
{ "type": "Feature", "properties": { "Name": "Valkenhof, zorgcentrum De Vlasgaard", "description": null, "timestamp": null, "begin": null, "end": null, "altitudeMode": null, "tessellate": -1, "extrude": 0, "visibility": -1, "drawOrder": null, "icon": null, "Type": "Verpleeghuis en verzorgingshuis", "layer": "Z10", "path": "\/Users\/hiddodeboer\/Downloads\/Z10.kml" }, "geometry": { "type": "Point", "coordinates": [ 5.473686, 51.3503369, 0.0 ] } },
{ "type": "Feature", "properties": { "Name": "Valkenhof", "description": null, "timestamp": null, "begin": null, "end": null, "altitudeMode": null, "tessellate": -1, "extrude": 0, "visibility": -1, "drawOrder": null, "icon": null, "Type": "Organisatie", "layer": "Z10", "path": "\/Users\/hiddodeboer\/Downloads\/Z10.kml" }, "geometry": { "type": "Point", "coordinates": [ 5.4553738, 51.3472253, 0.0 ] } },
{ "type": "Feature", "properties": { "Name": "Azora, Zorgcentrum De Bettekamp", "description": null, "timestamp": null, "begin": null, "end": null, "altitudeMode": null, "tessellate": -1, "extrude": 0, "visibility": -1, "drawOrder": null, "icon": null, "Type": "Verpleeghuis en verzorgingshuis", "layer": "Z10", "path": "\/Users\/hiddodeboer\/Downloads\/Z10.kml" }, "geometry": { "type": "Point", "coordinates": [ 6.4529547, 51.9433269, 0.0 ] } },
{ "type": "Feature", "properties": { "Name": "Sensire", "description": null, "timestamp": null, "begin": null, "end": null, "altitudeMode": null, "tessellate": -1, "extrude": 0, "visibility": -1, "drawOrder": null, "icon": null, "Type": "Organisatie", "layer": "Z10", "path": "\/Users\/hiddodeboer\/Downloads\/Z10.kml" }, "geometry": { "type": "Point", "coordinates": [ 6.4642581000001, 51.9440239, 0.0 ] } },
{ "type": "Feature", "properties": { "Name": "Azora, Verpleeghuis Den Es", "description": null, "timestamp": null, "begin": null, "end": null, "altitudeMode": null, "tessellate": -1, "extrude": 0, "visibility": -1, "drawOrder": null, "icon": null, "Type": "Verpleeghuis en verzorgingshuis", "layer": "Z10", "path": "\/Users\/hiddodeboer\/Downloads\/Z10.kml" }, "geometry": { "type": "Point", "coordinates": [ 6.4536294, 51.9435635, 0.0 ] } },
{ "type": "Feature", "properties": { "Name": "Zorggroep Meander, Woonservicecentrum Breehorn", "description": null, "timestamp": null, "begin": null, "end": null, "altitudeMode": null, "tessellate": -1, "extrude": 0, "visibility": -1, "drawOrder": null, "icon": null, "Type": "Verpleeghuis en verzorgingshuis", "layer": "Z10", "path": "\/Users\/hiddodeboer\/Downloads\/Z10.kml" }, "geometry": { "type": "Point", "coordinates": [ 6.8688467, 53.0992546, 0.0 ] } },
{ "type": "Feature", "properties": { "Name": "Zorggroep Meander", "description": null, "timestamp": null, "begin": null, "end": null, "altitudeMode": null, "tessellate": -1, "extrude": 0, "visibility": -1, "drawOrder": null, "icon": null, "Type": "Organisatie", "layer": "Z10", "path": "\/Users\/hiddodeboer\/Downloads\/Z10.kml" }, "geometry": { "type": "Point", "coordinates": [ 6.8750998, 53.1062782, 0.0 ] } },
{ "type": "Feature", "properties": { "Name": "Woonzorgcentrum Huize Sint Franciscus", "description": null, "timestamp": null, "begin": null, "end": null, "altitudeMode": null, "tessellate": -1, "extrude": 0, "visibility": -1, "drawOrder": null, "icon": null, "Type": "Verpleeghuis en verzorgingshuis", "layer": "Z10", "path": "\/Users\/hiddodeboer\/Downloads\/Z10.kml" }, "geometry": { "type": "Point", "coordinates": [ 6.8726879, 53.09796, 0.0 ] } },
{ "type": "Feature", "properties": { "Name": "Zorggroep Meander, Woonzorgcentrum Veenkade", "description": null, "timestamp": null, "begin": null, "end": null, "altitudeMode": null, "tessellate": -1, "extrude": 0, "visibility": -1, "drawOrder": null, "icon": null, "Type": "Verpleeghuis en verzorgingshuis", "layer": "Z10", "path": "\/Users\/hiddodeboer\/Downloads\/Z10.kml" }, "geometry": { "type": "Point", "coordinates": [ 6.8640102, 53.1031451, 0.0 ] } },
{ "type": "Feature", "properties": { "Name": "Zorggroep Groningen, locatie A.G. Wildervanck", "description": null, "timestamp": null, "begin": null, "end": null, "altitudeMode": null, "tessellate": -1, "extrude": 0, "visibility": -1, "drawOrder": null, "icon": null, "Type": "Verpleeghuis en verzorgingshuis", "layer": "Z10", "path": "\/Users\/hiddodeboer\/Downloads\/Z10.kml" }, "geometry": { "type": "Point", "coordinates": [ 6.8587029, 53.1003255, 0.0 ] } },
{ "type": "Feature", "properties": { "Name": "Zorggroep Meander, Revalidatiecentrum Veenkade Oude Ae", "description": null, "timestamp": null, "begin": null, "end": null, "altitudeMode": null, "tessellate": -1, "extrude": 0, "visibility": -1, "drawOrder": null, "icon": null, "Type": "Verpleeghuis en verzorgingshuis", "layer": "Z10", "path": "\/Users\/hiddodeboer\/Downloads\/Z10.kml" }, "geometry": { "type": "Point", "coordinates": [ 6.8640102, 53.1031451, 0.0 ] } },
{ "type": "Feature", "properties": { "Name": "Charim, locatie D'n Aok", "description": null, "timestamp": null, "begin": null, "end": null, "altitudeMode": null, "tessellate": -1, "extrude": 0, "visibility": -1, "drawOrder": null, "icon": null, "Type": "Verpleeghuis en verzorgingshuis", "layer": "Z10", "path": "\/Users\/hiddodeboer\/Downloads\/Z10.kml" }, "geometry": { "type": "Point", "coordinates": [ 5.5618701, 52.0213995, 0.0 ] } },
{ "type": "Feature", "properties": { "Name": "QuaRijn, De Koekoek", "description": null, "timestamp": null, "begin": null, "end": null, "altitudeMode": null, "tessellate": -1, "extrude": 0, "visibility": -1, "drawOrder": null, "icon": null, "Type": "Verpleeghuis en verzorgingshuis", "layer": "Z10", "path": "\/Users\/hiddodeboer\/Downloads\/Z10.kml" }, "geometry": { "type": "Point", "coordinates": [ 5.5563113000001, 52.0308631, 0.0 ] } },
{ "type": "Feature", "properties": { "Name": "Woon- en Zorgvoorziening Dennenhorst", "description": null, "timestamp": null, "begin": null, "end": null, "altitudeMode": null, "tessellate": -1, "extrude": 0, "visibility": -1, "drawOrder": null, "icon": null, "Type": "Particulier woonzorgcentrum", "layer": "Z10", "path": "\/Users\/hiddodeboer\/Downloads\/Z10.kml" }, "geometry": { "type": "Point", "coordinates": [ 5.564583, 52.0361894, 0.0 ] } },
{ "type": "Feature", "properties": { "Name": "Charim, locatie 't Boveneind", "description": null, "timestamp": null, "begin": null, "end": null, "altitudeMode": null, "tessellate": -1, "extrude": 0, "visibility": -1, "drawOrder": null, "icon": null, "Type": "Verpleeghuis en verzorgingshuis", "layer": "Z10", "path": "\/Users\/hiddodeboer\/Downloads\/Z10.kml" }, "geometry": { "type": "Point", "coordinates": [ 5.5630031000001, 52.0316892, 0.0 ] } },
{ "type": "Feature", "properties": { "Name": "Zorggroep Charim", "description": null, "timestamp": null, "begin": null, "end": null, "altitudeMode": null, "tessellate": -1, "extrude": 0, "visibility": -1, "drawOrder": null, "icon": null, "Type": "Organisatie", "layer": "Z10", "path": "\/Users\/hiddodeboer\/Downloads\/Z10.kml" }, "geometry": { "type": "Point", "coordinates": [ 5.5639418000001, 52.040586, 0.0 ] } },
{ "type": "Feature", "properties": { "Name": "Hospice Berkenstein", "description": null, "timestamp": null, "begin": null, "end": null, "altitudeMode": null, "tessellate": -1, "extrude": 0, "visibility": -1, "drawOrder": null, "icon": null, "Type": "Hospice", "layer": "Z10", "path": "\/Users\/hiddodeboer\/Downloads\/Z10.kml" }, "geometry": { "type": "Point", "coordinates": [ 5.5277655, 52.0264606, 0.0 ] } },
{ "type": "Feature", "properties": { "Name": "Charim, locatie De Engelenburgh", "description": null, "timestamp": null, "begin": null, "end": null, "altitudeMode": null, "tessellate": -1, "extrude": 0, "visibility": -1, "drawOrder": null, "icon": null, "Type": "Verpleeghuis en verzorgingshuis", "layer": "Z10", "path": "\/Users\/hiddodeboer\/Downloads\/Z10.kml" }, "geometry": { "type": "Point", "coordinates": [ 5.5516857, 52.0212164, 0.0 ] } },
{ "type": "Feature", "properties": { "Name": "Charim Geriatrische Revalidatie Zorg", "description": null, "timestamp": null, "begin": null, "end": null, "altitudeMode": null, "tessellate": -1, "extrude": 0, "visibility": -1, "drawOrder": null, "icon": null, "Type": "Verpleeghuis en verzorgingshuis", "layer": "Z10", "path": "\/Users\/hiddodeboer\/Downloads\/Z10.kml" }, "geometry": { "type": "Point", "coordinates": [ 5.5528475, 52.0201952, 0.0 ] } },
{ "type": "Feature", "properties": { "Name": "Charim, locatie Dragonder", "description": null, "timestamp": null, "begin": null, "end": null, "altitudeMode": null, "tessellate": -1, "extrude": 0, "visibility": -1, "drawOrder": null, "icon": null, "Type": "Verpleeghuis en verzorgingshuis", "layer": "Z10", "path": "\/Users\/hiddodeboer\/Downloads\/Z10.kml" }, "geometry": { "type": "Point", "coordinates": [ 5.5632834, 52.0325426, 0.0 ] } },
{ "type": "Feature", "properties": { "Name": "Charim, locatie De Meent", "description": null, "timestamp": null, "begin": null, "end": null, "altitudeMode": null, "tessellate": -1, "extrude": 0, "visibility": -1, "drawOrder": null, "icon": null, "Type": "Verpleeghuis en verzorgingshuis", "layer": "Z10", "path": "\/Users\/hiddodeboer\/Downloads\/Z10.kml" }, "geometry": { "type": "Point", "coordinates": [ 5.5772483000001, 52.0320119, 0.0 ] } },
{ "type": "Feature", "properties": { "Name": "Zorgstroom, Zorg- en verpleegcentrum Nieuw-Sandenburgh", "description": null, "timestamp": null, "begin": null, "end": null, "altitudeMode": null, "tessellate": -1, "extrude": 0, "visibility": -1, "drawOrder": null, "icon": null, "Type": "Verpleeghuis en verzorgingshuis", "layer": "Z10", "path": "\/Users\/hiddodeboer\/Downloads\/Z10.kml" }, "geometry": { "type": "Point", "coordinates": [ 3.6626373, 51.5414442, 0.0 ] } },
{ "type": "Feature", "properties": { "Name": "Dagelijks Leven, locatie Het van Coothhuis", "description": null, "timestamp": null, "begin": null, "end": null, "altitudeMode": null, "tessellate": -1, "extrude": 0, "visibility": -1, "drawOrder": null, "icon": null, "Type": "Particulier woonzorgcentrum", "layer": "Z10", "path": "\/Users\/hiddodeboer\/Downloads\/Z10.kml" }, "geometry": { "type": "Point", "coordinates": [ 5.5415781, 51.6203579, 0.0 ] } },